{
"type": "FeatureCollection",
"crs": { "type": "name", "properties": { "name": "urn:ogc:def:crs:OGC:1.3:CRS84" } },
"features": [
{ "type": "Feature", "properties": { "sid": "KSLC", "name": "Salt Lake City, Salt Lake City International Airport", "elev_ft": 4226, "state": "UT", "lat": 40.77069, "lon": -111.96503 }, "geometry": { "type": "Point", "coordinates": [ -111.96503, 40.77069 ] } },
{ "type": "Feature", "properties": { "sid": "KU42", "name": "South Valley Regional Airport", "elev_ft": 4596, "state": "UT", "lat": 40.5, "lon": -111.9933 }, "geometry": { "type": "Point", "coordinates": [ -111.9933, 40.5 ] } },
{ "type": "Feature", "properties": { "sid": "KHIF", "name": "Hill Air Force Base", "elev_ft": 4783, "state": "UT", "lat": 41.11112, "lon": -111.96229 }, "geometry": { "type": "Point", "coordinates": [ -111.96229, 41.11112 ] } },
{ "type": "Feature", "properties": { "sid": "KOGD", "name": "Ogden-Hinckley Airport", "elev_ft": 4440, "state": "UT", "lat": 41.19406, "lon": -112.01681 }, "geometry": { "type": "Point", "coordinates": [ -112.01681, 41.19406 ] } },
{ "type": "Feature", "properties": { "sid": "KBMC", "name": "Brigham City Regional Airport", "elev_ft": 4230, "state": "UT", "lat": 41.5464, "lon": -112.0601 }, "geometry": { "type": "Point", "coordinates": [ -112.0601, 41.5464 ] } },
{ "type": "Feature", "properties": { "sid": "KPVU", "name": "Provo Municipal Airport", "elev_ft": 4495, "state": "UT", "lat": 40.2239, "lon": -111.7253 }, "geometry": { "type": "Point", "coordinates": [ -111.7253, 40.2239 ] } },
{ "type": "Feature", "properties": { "sid": "KLGU", "name": "Logan-Cache Airport", "elev_ft": 4446, "state": "UT", "lat": 41.78652, "lon": -111.85187 }, "geometry": { "type": "Point", "coordinates": [ -111.85187, 41.78652 ] } },
{ "type": "Feature", "properties": { "sid": "KPUC", "name": "Price - Carbon County Regional Airport", "elev_ft": 5813, "state": "UT", "lat": 39.60886, "lon": -110.75548 }, "geometry": { "type": "Point", "coordinates": [ -110.75548, 39.60886 ] } },
{ "type": "Feature", "properties": { "sid": "KVEL", "name": "Vernal Airport", "elev_ft": 5262, "state": "UT", "lat": 40.44295, "lon": -109.51273 }, "geometry": { "type": "Point", "coordinates": [ -109.51273, 40.44295 ] } },
{ "type": "Feature", "properties": { "sid": "KGCD", "name": "Grant County Regional Airport", "elev_ft": 3675, "state": "OR", "lat": 44.40287, "lon": -118.96715 }, "geometry": { "type": "Point", "coordinates": [ -118.96715, 44.40287 ] } },
{ "type": "Feature", "properties": { "sid": "KAAT", "name": "Alturas", "elev_ft": 4383, "state": "CA", "lat": 41.48362, "lon": -120.5615 }, "geometry": { "type": "Point", "coordinates": [ -120.5615, 41.48362 ] } },
{ "type": "Feature", "properties": { "sid": "KACV", "name": "Arcata / Eureka, Arcata Airport", "elev_ft": 217, "state": "CA", "lat": 40.97806, "lon": -124.10861 }, "geometry": { "type": "Point", "coordinates": [ -124.10861, 40.97806 ] } },
{ "type": "Feature", "properties": { "sid": "KALW", "name": "Walla Walla Regional Airport", "elev_ft": 1168, "state": "WA", "lat": 46.09462, "lon": -118.2858 }, "geometry": { "type": "Point", "coordinates": [ -118.2858, 46.09462 ] } },
{ "type": "Feature", "properties": { "sid": "KAPC", "name": "Napa, Napa County Airport", "elev_ft": 33, "state": "CA", "lat": 38.2075, "lon": -122.27944 }, "geometry": { "type": "Point", "coordinates": [ -122.27944, 38.2075 ] } },
{ "type": "Feature", "properties": { "sid": "KAST", "name": "Astoria, Astoria Regional Airport", "elev_ft": 10, "state": "OR", "lat": 46.15694, "lon": -123.8825 }, "geometry": { "type": "Point", "coordinates": [ -123.8825, 46.15694 ] } },
{ "type": "Feature", "properties": { "sid": "KAWO", "name": "Arlington Municipal Airport", "elev_ft": 125, "state": "WA", "lat": 48.1585, "lon": -122.15909 }, "geometry": { "type": "Point", "coordinates": [ -122.15909, 48.1585 ] } },
{ "type": "Feature", "properties": { "sid": "KBAM", "name": "Battle Mountain - Lander County Airport", "elev_ft": 4532, "state": "NV", "lat": 40.599, "lon": -116.8743 }, "geometry": { "type": "Point", "coordinates": [ -116.8743, 40.599 ] } },
{ "type": "Feature", "properties": { "sid": "KBAB", "name": "Marysville, Beale Air Force Base", "elev_ft": 112, "state": "CA", "lat": 39.13333, "lon": -121.43333 }, "geometry": { "type": "Point", "coordinates": [ -121.43333, 39.13333 ] } },
{ "type": "Feature", "properties": { "sid": "KBCE", "name": "Bryce Canyon Airport", "elev_ft": 7585, "state": "UT", "lat": 37.70128, "lon": -112.14897 }, "geometry": { "type": "Point", "coordinates": [ -112.14897, 37.70128 ] } },
{ "type": "Feature", "properties": { "sid": "KBDG", "name": "Blanding Municipal Airport", "elev_ft": 5868, "state": "UT", "lat": 37.586, "lon": -109.482 }, "geometry": { "type": "Point", "coordinates": [ -109.482, 37.586 ] } },
{ "type": "Feature", "properties": { "sid": "KBFI", "name": "Boeing Field - King County International Airport", "elev_ft": 20, "state": "WA", "lat": 47.54548, "lon": -122.3147 }, "geometry": { "type": "Point", "coordinates": [ -122.3147, 47.54548 ] } },
{ "type": "Feature", "properties": { "sid": "KBFL", "name": "Bakersfield, Meadows Field Airport", "elev_ft": 509, "state": "CA", "lat": 35.43361, "lon": -119.05667 }, "geometry": { "type": "Point", "coordinates": [ -119.05667, 35.43361 ] } },
{ "type": "Feature", "properties": { "sid": "KBHK", "name": "Baker, Baker Municipal Airport", "elev_ft": 2969, "state": "MT", "lat": 46.34778, "lon": -104.2575 }, "geometry": { "type": "Point", "coordinates": [ -104.2575, 46.34778 ] } },
{ "type": "Feature", "properties": { "sid": "KBIH", "name": "Bishop, Bishop Airport", "elev_ft": 4121, "state": "CA", "lat": 37.37111, "lon": -118.35806 }, "geometry": { "type": "Point", "coordinates": [ -118.35806, 37.37111 ] } },
{ "type": "Feature", "properties": { "sid": "KBIL", "name": "Billings, Billings Logan International Airport", "elev_ft": 3648, "state": "MT", "lat": 45.80694, "lon": -108.54222 }, "geometry": { "type": "Point", "coordinates": [ -108.54222, 45.80694 ] } },
{ "type": "Feature", "properties": { "sid": "KBKE", "name": "Baker Municipal Airport", "elev_ft": 3360, "state": "OR", "lat": 44.84302, "lon": -117.80987 }, "geometry": { "type": "Point", "coordinates": [ -117.80987, 44.84302 ] } },
{ "type": "Feature", "properties": { "sid": "KBLH", "name": "Blythe, Blythe Airport", "elev_ft": 397, "state": "CA", "lat": 33.61917, "lon": -114.71694 }, "geometry": { "type": "Point", "coordinates": [ -114.71694, 33.61917 ] } },
{ "type": "Feature", "properties": { "sid": "KBLI", "name": "Bellingham, Bellingham International Airport", "elev_ft": 148, "state": "WA", "lat": 48.79911, "lon": -122.54064 }, "geometry": { "type": "Point", "coordinates": [ -122.54064, 48.79911 ] } },
{ "type": "Feature", "properties": { "sid": "KBLU", "name": "Emigrant Gap, Blue Canyon Nyack Airport", "elev_ft": 5282, "state": "CA", "lat": 39.27611, "lon": -120.70806 }, "geometry": { "type": "Point", "coordinates": [ -120.70806, 39.27611 ] } },
{ "type": "Feature", "properties": { "sid": "KBNO", "name": "Burns Municipal Airport", "elev_ft": 4140, "state": "OR", "lat": 43.59488, "lon": -118.95791 }, "geometry": { "type": "Point", "coordinates": [ -118.95791, 43.59488 ] } },
{ "type": "Feature", "properties": { "sid": "KBOI", "name": "Boise Air Terminal", "elev_ft": 2822, "state": "ID", "lat": 43.56704, "lon": -116.24053 }, "geometry": { "type": "Point", "coordinates": [ -116.24053, 43.56704 ] } },
{ "type": "Feature", "properties": { "sid": "KBTM", "name": "Butte, Bert Mooney Airport", "elev_ft": 5545, "state": "MT", "lat": 45.95472, "lon": -112.4975 }, "geometry": { "type": "Point", "coordinates": [ -112.4975, 45.95472 ] } },
{ "type": "Feature", "properties": { "sid": "KBUR", "name": "Burbank - Bob Hope Airport", "elev_ft": 728, "state": "CA", "lat": 34.19967, "lon": -118.36538 }, "geometry": { "type": "Point", "coordinates": [ -118.36538, 34.19967 ] } },
{ "type": "Feature", "properties": { "sid": "KBYI", "name": "Burley Municipal Airport", "elev_ft": 4137, "state": "ID", "lat": 42.54525, "lon": -113.7686 }, "geometry": { "type": "Point", "coordinates": [ -113.7686, 42.54525 ] } },
{ "type": "Feature", "properties": { "sid": "KBYS", "name": "Fort Irwin/Barstow, Bicycle Lake Army Airfield", "elev_ft": 2349, "state": "CA", "lat": 35.28333, "lon": -116.61667 }, "geometry": { "type": "Point", "coordinates": [ -116.61667, 35.28333 ] } },
{ "type": "Feature", "properties": { "sid": "KBZN", "name": "Bozeman, Gallatin Field", "elev_ft": 4475, "state": "MT", "lat": 45.78806, "lon": -111.16083 }, "geometry": { "type": "Point", "coordinates": [ -111.16083, 45.78806 ] } },
{ "type": "Feature", "properties": { "sid": "KCCR", "name": "Concord, Buchanan Field", "elev_ft": 23, "state": "CA", "lat": 37.99167, "lon": -122.05194 }, "geometry": { "type": "Point", "coordinates": [ -122.05194, 37.99167 ] } },
{ "type": "Feature", "properties": { "sid": "KCDC", "name": "Cedar City Municipal Airport", "elev_ft": 5581, "state": "UT", "lat": 37.70675, "lon": -113.09695 }, "geometry": { "type": "Point", "coordinates": [ -113.09695, 37.70675 ] } },
{ "type": "Feature", "properties": { "sid": "KCEC", "name": "Crescent City, Jack McNamara Field Airport", "elev_ft": 56, "state": "CA", "lat": 41.78028, "lon": -124.23667 }, "geometry": { "type": "Point", "coordinates": [ -124.23667, 41.78028 ] } },
{ "type": "Feature", "properties": { "sid": "KCGZ", "name": "Casa Grande, Casa Grande Municipal Airport", "elev_ft": 1463, "state": "AZ", "lat": 32.95, "lon": -111.76667 }, "geometry": { "type": "Point", "coordinates": [ -111.76667, 32.95 ] } },
{ "type": "Feature", "properties": { "sid": "KCIC", "name": "Chico Municipal Airport", "elev_ft": 236, "state": "CA", "lat": 39.79879, "lon": -121.85795 }, "geometry": { "type": "Point", "coordinates": [ -121.85795, 39.79879 ] } },
{ "type": "Feature", "properties": { "sid": "KCLM", "name": "Port Angeles Fairchild International Airport", "elev_ft": 262, "state": "WA", "lat": 48.12194, "lon": -123.50661 }, "geometry": { "type": "Point", "coordinates": [ -123.50661, 48.12194 ] } },
{ "type": "Feature", "properties": { "sid": "KCMA", "name": "Camarillo, Camarillo Airport", "elev_ft": 75, "state": "CA", "lat": 34.21667, "lon": -119.08333 }, "geometry": { "type": "Point", "coordinates": [ -119.08333, 34.21667 ] } },
{ "type": "Feature", "properties": { "sid": "KCNO", "name": "Chino, Chino Airport", "elev_ft": 650, "state": "CA", "lat": 33.97556, "lon": -117.62361 }, "geometry": { "type": "Point", "coordinates": [ -117.62361, 33.97556 ] } },
{ "type": "Feature", "properties": { "sid": "KCNY", "name": "Moab, Canyonlands Field", "elev_ft": 4554, "state": "UT", "lat": 38.76, "lon": -109.74472 }, "geometry": { "type": "Point", "coordinates": [ -109.74472, 38.76 ] } },
{ "type": "Feature", "properties": { "sid": "KCOE", "name": "Coeur d'Alene Airport - Pappy Boyington Field", "elev_ft": 2320, "state": "ID", "lat": 47.76667, "lon": -116.81667 }, "geometry": { "type": "Point", "coordinates": [ -116.81667, 47.76667 ] } },
{ "type": "Feature", "properties": { "sid": "KCRQ", "name": "Carlsbad, McClellan-Palomar Airport", "elev_ft": 328, "state": "CA", "lat": 33.13, "lon": -117.27583 }, "geometry": { "type": "Point", "coordinates": [ -117.27583, 33.13 ] } },
{ "type": "Feature", "properties": { "sid": "KCTB", "name": "Cut Bank, Cut Bank Municipal Airport", "elev_ft": 3855, "state": "MT", "lat": 48.60833, "lon": -112.37611 }, "geometry": { "type": "Point", "coordinates": [ -112.37611, 48.60833 ] } },
{ "type": "Feature", "properties": { "sid": "KCVO", "name": "Corvallis, Corvallis Municipal Airport", "elev_ft": 246, "state": "OR", "lat": 44.5, "lon": -123.28333 }, "geometry": { "type": "Point", "coordinates": [ -123.28333, 44.5 ] } },
{ "type": "Feature", "properties": { "sid": "KDAG", "name": "Daggett, Barstow-Daggett Airport", "elev_ft": 1926, "state": "CA", "lat": 34.85361, "lon": -116.78667 }, "geometry": { "type": "Point", "coordinates": [ -116.78667, 34.85361 ] } },
{ "type": "Feature", "properties": { "sid": "KDEW", "name": "Deer Park, Deer Park Airport", "elev_ft": 2205, "state": "WA", "lat": 47.97417, "lon": -117.42833 }, "geometry": { "type": "Point", "coordinates": [ -117.42833, 47.97417 ] } },
{ "type": "Feature", "properties": { "sid": "KDLN", "name": "Dillon, Dillon Airport", "elev_ft": 5239, "state": "MT", "lat": 45.2575, "lon": -112.55444 }, "geometry": { "type": "Point", "coordinates": [ -112.55444, 45.2575 ] } },
{ "type": "Feature", "properties": { "sid": "KDLS", "name": "The Dalles Municipal Airport", "elev_ft": 233, "state": "WA", "lat": 45.61901, "lon": -121.16572 }, "geometry": { "type": "Point", "coordinates": [ -121.16572, 45.61901 ] } },
{ "type": "Feature", "properties": { "sid": "KDMA", "name": "Davis-Monthan Air Force Base", "elev_ft": 2703, "state": "AZ", "lat": 32.16667, "lon": -110.88333 }, "geometry": { "type": "Point", "coordinates": [ -110.88333, 32.16667 ] } },
{ "type": "Feature", "properties": { "sid": "KDPG", "name": "Michael Army Airfield - Dugway Proving Ground", "elev_ft": 4337, "state": "UT", "lat": 40.18376, "lon": -112.9217 }, "geometry": { "type": "Point", "coordinates": [ -112.9217, 40.18376 ] } },
{ "type": "Feature", "properties": { "sid": "KDRA", "name": "Mercury, Desert Rock Airport", "elev_ft": 3238, "state": "NV", "lat": 36.6207, "lon": -116.02868 }, "geometry": { "type": "Point", "coordinates": [ -116.02868, 36.6207 ] } },
{ "type": "Feature", "properties": { "sid": "KDUG", "name": "Bisbee Douglas International Airport", "elev_ft": 4087, "state": "AZ", "lat": 31.45838, "lon": -109.60676 }, "geometry": { "type": "Point", "coordinates": [ -109.60676, 31.45838 ] } },
{ "type": "Feature", "properties": { "sid": "KDVT", "name": "Phoenix, Phoenix-Deer Valley Municipal Airport", "elev_ft": 1486, "state": "AZ", "lat": 33.69026, "lon": -112.06618 }, "geometry": { "type": "Point", "coordinates": [ -112.06618, 33.69026 ] } },
{ "type": "Feature", "properties": { "sid": "KEAT", "name": "Wenatchee - Pangborn Memorial Airport", "elev_ft": 1227, "state": "WA", "lat": 47.39749, "lon": -120.20121 }, "geometry": { "type": "Point", "coordinates": [ -120.20121, 47.39749 ] } },
{ "type": "Feature", "properties": { "sid": "KEDW", "name": "Edwards Air Force Base", "elev_ft": 2310, "state": "CA", "lat": 34.918, "lon": -117.879 }, "geometry": { "type": "Point", "coordinates": [ -117.879, 34.918 ] } },
{ "type": "Feature", "properties": { "sid": "KEED", "name": "Needles, Needles Airport", "elev_ft": 890, "state": "CA", "lat": 34.76611, "lon": -114.62333 }, "geometry": { "type": "Point", "coordinates": [ -114.62333, 34.76611 ] } },
{ "type": "Feature", "properties": { "sid": "KEKO", "name": "Elko, Elko Regional Airport", "elev_ft": 5052, "state": "NV", "lat": 40.82404, "lon": -115.78635 }, "geometry": { "type": "Point", "coordinates": [ -115.78635, 40.82404 ] } },
{ "type": "Feature", "properties": { "sid": "KELN", "name": "Ellensburg, Ellensburg Bowers Field", "elev_ft": 1745, "state": "WA", "lat": 47.03377, "lon": -120.53132 }, "geometry": { "type": "Point", "coordinates": [ -120.53132, 47.03377 ] } },
{ "type": "Feature", "properties": { "sid": "KELY", "name": "Ely, Ely Airport", "elev_ft": 6257, "state": "NV", "lat": 39.295, "lon": -114.84528 }, "geometry": { "type": "Point", "coordinates": [ -114.84528, 39.295 ] } },
{ "type": "Feature", "properties": { "sid": "KEMT", "name": "El Monte", "elev_ft": 295, "state": "CA", "lat": 34.08333, "lon": -118.03333 }, "geometry": { "type": "Point", "coordinates": [ -118.03333, 34.08333 ] } },
{ "type": "Feature", "properties": { "sid": "KENV", "name": "Wendover Airport", "elev_ft": 4236, "state": "UT", "lat": 40.72056, "lon": -114.03583 }, "geometry": { "type": "Point", "coordinates": [ -114.03583, 40.72056 ] } },
{ "type": "Feature", "properties": { "sid": "KEPH", "name": "Ephrata, Ephrata Municipal Airport", "elev_ft": 1276, "state": "WA", "lat": 47.3075, "lon": -119.51583 }, "geometry": { "type": "Point", "coordinates": [ -119.51583, 47.3075 ] } },
{ "type": "Feature", "properties": { "sid": "KEUG", "name": "Eugene, Mahlon Sweet Field", "elev_ft": 364, "state": "OR", "lat": 44.13333, "lon": -123.21444 }, "geometry": { "type": "Point", "coordinates": [ -123.21444, 44.13333 ] } },
{ "type": "Feature", "properties": { "sid": "KEUL", "name": "Caldwell - Caldwell Industrial Airport", "elev_ft": 2421, "state": "ID", "lat": 43.64055, "lon": -116.63017 }, "geometry": { "type": "Point", "coordinates": [ -116.63017, 43.64055 ] } },
{ "type": "Feature", "properties": { "sid": "KFAT", "name": "Fresno, Fresno Air Terminal", "elev_ft": 331, "state": "CA", "lat": 36.78, "lon": -119.71944 }, "geometry": { "type": "Point", "coordinates": [ -119.71944, 36.78 ] } },
{ "type": "Feature", "properties": { "sid": "KFFZ", "name": "Mesa / Falcon Field", "elev_ft": 1391, "state": "AZ", "lat": 33.46667, "lon": -111.73333 }, "geometry": { "type": "Point", "coordinates": [ -111.73333, 33.46667 ] } },
{ "type": "Feature", "properties": { "sid": "KFHR", "name": "Friday Harbor Airport", "elev_ft": 112, "state": "WA", "lat": 48.52, "lon": -123.02637 }, "geometry": { "type": "Point", "coordinates": [ -123.02637, 48.52 ] } },
{ "type": "Feature", "properties": { "sid": "KFHU", "name": "Fort Huachuca, Libby AAF Ft Huachuca", "elev_ft": 4718, "state": "AZ", "lat": 31.58333, "lon": -110.33333 }, "geometry": { "type": "Point", "coordinates": [ -110.33333, 31.58333 ] } },
{ "type": "Feature", "properties": { "sid": "KFLG", "name": "Flagstaff Pulliam Airport", "elev_ft": 6994, "state": "AZ", "lat": 35.14433, "lon": -111.66637 }, "geometry": { "type": "Point", "coordinates": [ -111.66637, 35.14433 ] } },
{ "type": "Feature", "properties": { "sid": "KFUL", "name": "Fullerton, Fullerton Municipal Airport", "elev_ft": 95, "state": "CA", "lat": 33.87194, "lon": -117.98472 }, "geometry": { "type": "Point", "coordinates": [ -117.98472, 33.87194 ] } },
{ "type": "Feature", "properties": { "sid": "KGXF", "name": "Gila Bend Air Force Auxiliary Field", "elev_ft": 859, "state": "AZ", "lat": 32.8875, "lon": -112.72 }, "geometry": { "type": "Point", "coordinates": [ -112.72, 32.8875 ] } },
{ "type": "Feature", "properties": { "sid": "KGCN", "name": "Grand Canyon National Park Airport", "elev_ft": 6598, "state": "AZ", "lat": 35.94582, "lon": -112.15538 }, "geometry": { "type": "Point", "coordinates": [ -112.15538, 35.94582 ] } },
{ "type": "Feature", "properties": { "sid": "KGDV", "name": "Glendive, Dawson Community Airport", "elev_ft": 2457, "state": "MT", "lat": 47.13333, "lon": -104.8 }, "geometry": { "type": "Point", "coordinates": [ -104.8, 47.13333 ] } },
{ "type": "Feature", "properties": { "sid": "KGEG", "name": "Spokane, Spokane International Airport", "elev_ft": 2372, "state": "WA", "lat": 47.62139, "lon": -117.52778 }, "geometry": { "type": "Point", "coordinates": [ -117.52778, 47.62139 ] } },
{ "type": "Feature", "properties": { "sid": "KGEU", "name": "Glendale, Glendale Municipal Airport", "elev_ft": 1066, "state": "AZ", "lat": 33.52722, "lon": -112.29528 }, "geometry": { "type": "Point", "coordinates": [ -112.29528, 33.52722 ] } },
{ "type": "Feature", "properties": { "sid": "KGFA", "name": "Malmstrom Air Force Base", "elev_ft": 3527, "state": "MT", "lat": 47.5, "lon": -111.18333 }, "geometry": { "type": "Point", "coordinates": [ -111.18333, 47.5 ] } },
{ "type": "Feature", "properties": { "sid": "KGGW", "name": "Glasgow, Glasgow International Airport", "elev_ft": 2293, "state": "MT", "lat": 48.21389, "lon": -106.62139 }, "geometry": { "type": "Point", "coordinates": [ -106.62139, 48.21389 ] } },
{ "type": "Feature", "properties": { "sid": "KGRF", "name": "Fort Lewis / Gray U. S. Army Airfield", "elev_ft": 302, "state": "WA", "lat": 47.11667, "lon": -122.55 }, "geometry": { "type": "Point", "coordinates": [ -122.55, 47.11667 ] } },
{ "type": "Feature", "properties": { "sid": "KGTF", "name": "Great Falls, Great Falls International Airport", "elev_ft": 3675, "state": "MT", "lat": 47.47333, "lon": -111.38222 }, "geometry": { "type": "Point", "coordinates": [ -111.38222, 47.47333 ] } },
{ "type": "Feature", "properties": { "sid": "KGYR", "name": "Goodyear Municipal", "elev_ft": 968, "state": "AZ", "lat": 33.41667, "lon": -112.38333 }, "geometry": { "type": "Point", "coordinates": [ -112.38333, 33.41667 ] } },
{ "type": "Feature", "properties": { "sid": "KHHR", "name": "Hawthorne, Hawthorne Municipal Airport", "elev_ft": 62, "state": "CA", "lat": 33.92361, "lon": -118.33194 }, "geometry": { "type": "Point", "coordinates": [ -118.33194, 33.92361 ] } },
{ "type": "Feature", "properties": { "sid": "KHIO", "name": "Portland-Hillsboro Airport", "elev_ft": 194, "state": "OR", "lat": 45.54765, "lon": -122.95568 }, "geometry": { "type": "Point", "coordinates": [ -122.95568, 45.54765 ] } },
{ "type": "Feature", "properties": { "sid": "KHJO", "name": "Hanford Municipal Airport", "elev_ft": 233, "state": "CA", "lat": 36.31145, "lon": -119.62315 }, "geometry": { "type": "Point", "coordinates": [ -119.62315, 36.31145 ] } },
{ "type": "Feature", "properties": { "sid": "KHLN", "name": "Helena Regional Airport", "elev_ft": 3874, "state": "MT", "lat": 46.60445, "lon": -111.9892 }, "geometry": { "type": "Point", "coordinates": [ -111.9892, 46.60445 ] } },
{ "type": "Feature", "properties": { "sid": "KHQM", "name": "Hoquiam, Bowerman Airport", "elev_ft": 13, "state": "WA", "lat": 46.97111, "lon": -123.92 }, "geometry": { "type": "Point", "coordinates": [ -123.92, 46.97111 ] } },
{ "type": "Feature", "properties": { "sid": "KHRI", "name": "Hermiston, Hermiston Municipal Airport", "elev_ft": 636, "state": "OR", "lat": 45.82583, "lon": -119.26111 }, "geometry": { "type": "Point", "coordinates": [ -119.26111, 45.82583 ] } },
{ "type": "Feature", "properties": { "sid": "KHVR", "name": "Havre, Havre City-County Airport", "elev_ft": 2589, "state": "MT", "lat": 48.54278, "lon": -109.76333 }, "geometry": { "type": "Point", "coordinates": [ -109.76333, 48.54278 ] } },
{ "type": "Feature", "properties": { "sid": "KHWD", "name": "Hayward, Hayward Air Terminal", "elev_ft": 46, "state": "CA", "lat": 37.66083, "lon": -122.11833 }, "geometry": { "type": "Point", "coordinates": [ -122.11833, 37.66083 ] } },
{ "type": "Feature", "properties": { "sid": "KIDA", "name": "Idaho Falls Regional Airport", "elev_ft": 4741, "state": "ID", "lat": 43.52083, "lon": -112.06611 }, "geometry": { "type": "Point", "coordinates": [ -112.06611, 43.52083 ] } },
{ "type": "Feature", "properties": { "sid": "KIFP", "name": "Bullhead City, Laughlin/Bullhead International Airport", "elev_ft": 696, "state": "AZ", "lat": 35.1575, "lon": -114.55944 }, "geometry": { "type": "Point", "coordinates": [ -114.55944, 35.1575 ] } },
{ "type": "Feature", "properties": { "sid": "KIGM", "name": "Kingman, Kingman Airport", "elev_ft": 3445, "state": "AZ", "lat": 35.25778, "lon": -113.93306 }, "geometry": { "type": "Point", "coordinates": [ -113.93306, 35.25778 ] } },
{ "type": "Feature", "properties": { "sid": "KINW", "name": "Winslow, Winslow Municipal Airport", "elev_ft": 4938, "state": "AZ", "lat": 35.02806, "lon": -110.72083 }, "geometry": { "type": "Point", "coordinates": [ -110.72083, 35.02806 ] } },
{ "type": "Feature", "properties": { "sid": "KIPL", "name": "Imperial, Imperial County Airport", "elev_ft": -56, "state": "CA", "lat": 32.83417, "lon": -115.57861 }, "geometry": { "type": "Point", "coordinates": [ -115.57861, 32.83417 ] } },
{ "type": "Feature", "properties": { "sid": "KIWA", "name": "Phoenix-Mesa Gateway Airport", "elev_ft": 1381, "state": "AZ", "lat": 33.31667, "lon": -111.65 }, "geometry": { "type": "Point", "coordinates": [ -111.65, 33.31667 ] } },
{ "type": "Feature", "properties": { "sid": "KJDN", "name": "Jordan, Jordan Airport", "elev_ft": 2661, "state": "MT", "lat": 47.32583, "lon": -106.9475 }, "geometry": { "type": "Point", "coordinates": [ -106.9475, 47.32583 ] } },
{ "type": "Feature", "properties": { "sid": "KJER", "name": "Jerome County Airport", "elev_ft": 4022, "state": "ID", "lat": 42.72736, "lon": -114.45469 }, "geometry": { "type": "Point", "coordinates": [ -114.45469, 42.72736 ] } },
{ "type": "Feature", "properties": { "sid": "KKLS", "name": "Southwest Washington Regional Airport", "elev_ft": 13, "state": "WA", "lat": 46.11553, "lon": -122.89273 }, "geometry": { "type": "Point", "coordinates": [ -122.89273, 46.11553 ] } },
{ "type": "Feature", "properties": { "sid": "KLAS", "name": "Harry Reid International Airport", "elev_ft": 2180, "state": "NV", "lat": 36.07188, "lon": -115.1634 }, "geometry": { "type": "Point", "coordinates": [ -115.1634, 36.07188 ] } },
{ "type": "Feature", "properties": { "sid": "KLAX", "name": "Los Angeles, Los Angeles International Airport", "elev_ft": 125, "state": "CA", "lat": 33.93806, "lon": -118.38889 }, "geometry": { "type": "Point", "coordinates": [ -118.38889, 33.93806 ] } },
{ "type": "Feature", "properties": { "sid": "KLGB", "name": "Long Beach, Long Beach Airport", "elev_ft": 56, "state": "CA", "lat": 33.81167, "lon": -118.14639 }, "geometry": { "type": "Point", "coordinates": [ -118.14639, 33.81167 ] } },
{ "type": "Feature", "properties": { "sid": "KLGD", "name": "La Grande/Union County Airport", "elev_ft": 2707, "state": "OR", "lat": 45.29066, "lon": -118.00884 }, "geometry": { "type": "Point", "coordinates": [ -118.00884, 45.29066 ] } },
{ "type": "Feature", "properties": { "sid": "KLKV", "name": "Lake County Airport", "elev_ft": 4721, "state": "OR", "lat": 42.15664, "lon": -120.39721 }, "geometry": { "type": "Point", "coordinates": [ -120.39721, 42.15664 ] } },
{ "type": "Feature", "properties": { "sid": "KLLJ", "name": "Challis - Challis Airport", "elev_ft": 5026, "state": "ID", "lat": 44.523, "lon": -114.21611 }, "geometry": { "type": "Point", "coordinates": [ -114.21611, 44.523 ] } },
{ "type": "Feature", "properties": { "sid": "KLMT", "name": "Klamath Falls International Airport", "elev_ft": 4081, "state": "OR", "lat": 42.14703, "lon": -121.72548 }, "geometry": { "type": "Point", "coordinates": [ -121.72548, 42.14703 ] } },
{ "type": "Feature", "properties": { "sid": "KLOL", "name": "Lovelock, Derby Field Airport", "elev_ft": 3901, "state": "NV", "lat": 40.0684, "lon": -118.57017 }, "geometry": { "type": "Point", "coordinates": [ -118.57017, 40.0684 ] } },
{ "type": "Feature", "properties": { "sid": "KLPC", "name": "Lompoc, Lompoc Airport", "elev_ft": 89, "state": "CA", "lat": 34.66667, "lon": -120.46667 }, "geometry": { "type": "Point", "coordinates": [ -120.46667, 34.66667 ] } },
{ "type": "Feature", "properties": { "sid": "KLSV", "name": "Nellis Air Force Base", "elev_ft": 1870, "state": "NV", "lat": 36.23333, "lon": -115.03333 }, "geometry": { "type": "Point", "coordinates": [ -115.03333, 36.23333 ] } },
{ "type": "Feature", "properties": { "sid": "KLUF", "name": "Luke Air Force Base / Phoenix", "elev_ft": 1089, "state": "AZ", "lat": 33.53333, "lon": -112.38333 }, "geometry": { "type": "Point", "coordinates": [ -112.38333, 33.53333 ] } },
{ "type": "Feature", "properties": { "sid": "KLVK", "name": "Livermore, Livermore Municipal Airport", "elev_ft": 397, "state": "CA", "lat": 37.69278, "lon": -121.81444 }, "geometry": { "type": "Point", "coordinates": [ -121.81444, 37.69278 ] } },
{ "type": "Feature", "properties": { "sid": "KLVM", "name": "Livingston, Mission Field Airport", "elev_ft": 4656, "state": "MT", "lat": 45.69944, "lon": -110.44833 }, "geometry": { "type": "Point", "coordinates": [ -110.44833, 45.69944 ] } },
{ "type": "Feature", "properties": { "sid": "KLWS", "name": "Lewiston, Lewiston-Nez Perce County Airport", "elev_ft": 1437, "state": "ID", "lat": 46.37472, "lon": -117.01444 }, "geometry": { "type": "Point", "coordinates": [ -117.01444, 46.37472 ] } },
{ "type": "Feature", "properties": { "sid": "KLWT", "name": "Lewistown, Lewistown Municipal Airport", "elev_ft": 4167, "state": "MT", "lat": 47.04917, "lon": -109.46639 }, "geometry": { "type": "Point", "coordinates": [ -109.46639, 47.04917 ] } },
{ "type": "Feature", "properties": { "sid": "KMAE", "name": "Madera Municipal Airport", "elev_ft": 246, "state": "CA", "lat": 36.9851, "lon": -120.11064 }, "geometry": { "type": "Point", "coordinates": [ -120.11064, 36.9851 ] } },
{ "type": "Feature", "properties": { "sid": "KMCC", "name": "Sacramento, McClellan Airfield Airport", "elev_ft": 75, "state": "CA", "lat": 38.66667, "lon": -121.4 }, "geometry": { "type": "Point", "coordinates": [ -121.4, 38.66667 ] } },
{ "type": "Feature", "properties": { "sid": "KMCE", "name": "Merced Regional Airport", "elev_ft": 154, "state": "CA", "lat": 37.28306, "lon": -120.50778 }, "geometry": { "type": "Point", "coordinates": [ -120.50778, 37.28306 ] } },
{ "type": "Feature", "properties": { "sid": "KMEH", "name": "Meacham", "elev_ft": 3730, "state": "OR", "lat": 45.51176, "lon": -118.42466 }, "geometry": { "type": "Point", "coordinates": [ -118.42466, 45.51176 ] } },
{ "type": "Feature", "properties": { "sid": "KMER", "name": "Merced / Castle Air Force Base", "elev_ft": 187, "state": "CA", "lat": 37.36667, "lon": -120.56667 }, "geometry": { "type": "Point", "coordinates": [ -120.56667, 37.36667 ] } },
{ "type": "Feature", "properties": { "sid": "KMFR", "name": "Rogue Valley International Airport", "elev_ft": 1312, "state": "OR", "lat": 42.37503, "lon": -122.87696 }, "geometry": { "type": "Point", "coordinates": [ -122.87696, 42.37503 ] } },
{ "type": "Feature", "properties": { "sid": "KMHR", "name": "Sacramento Mather Airport", "elev_ft": 92, "state": "CA", "lat": 38.55996, "lon": -121.28397 }, "geometry": { "type": "Point", "coordinates": [ -121.28397, 38.55996 ] } },
{ "type": "Feature", "properties": { "sid": "KMHS", "name": "Mount Shasta", "elev_ft": 3540, "state": "CA", "lat": 41.31494, "lon": -122.31702 }, "geometry": { "type": "Point", "coordinates": [ -122.31702, 41.31494 ] } },
{ "type": "Feature", "properties": { "sid": "KMHV", "name": "Mojave", "elev_ft": 2785, "state": "CA", "lat": 35.06667, "lon": -118.15 }, "geometry": { "type": "Point", "coordinates": [ -118.15, 35.06667 ] } },
{ "type": "Feature", "properties": { "sid": "KMLF", "name": "Milford Municipal Airport", "elev_ft": 5034, "state": "UT", "lat": 38.42252, "lon": -113.01089 }, "geometry": { "type": "Point", "coordinates": [ -113.01089, 38.42252 ] } },
{ "type": "Feature", "properties": { "sid": "KMLP", "name": "Mullan Pass, Mullan Pass Vor", "elev_ft": 6001, "state": "MT", "lat": 47.45417, "lon": -115.66972 }, "geometry": { "type": "Point", "coordinates": [ -115.66972, 47.45417 ] } },
{ "type": "Feature", "properties": { "sid": "KMLS", "name": "Miles City, Frank Wiley Field Airport", "elev_ft": 2628, "state": "MT", "lat": 46.42806, "lon": -105.88639 }, "geometry": { "type": "Point", "coordinates": [ -105.88639, 46.42806 ] } },
{ "type": "Feature", "properties": { "sid": "KMMH", "name": "Mammoth Yosemite Airport", "elev_ft": 7112, "state": "CA", "lat": 37.6241, "lon": -118.8423 }, "geometry": { "type": "Point", "coordinates": [ -118.8423, 37.6241 ] } },
{ "type": "Feature", "properties": { "sid": "KMOD", "name": "Modesto City-County Airport - Harry Sham Field", "elev_ft": 85, "state": "CA", "lat": 37.62549, "lon": -120.9549 }, "geometry": { "type": "Point", "coordinates": [ -120.9549, 37.62549 ] } },
{ "type": "Feature", "properties": { "sid": "KMRY", "name": "Monterey Regional Airport", "elev_ft": 167, "state": "CA", "lat": 36.59047, "lon": -121.84875 }, "geometry": { "type": "Point", "coordinates": [ -121.84875, 36.59047 ] } },
{ "type": "Feature", "properties": { "sid": "KMSO", "name": "Missoula, Missoula International Airport", "elev_ft": 3199, "state": "MT", "lat": 46.92083, "lon": -114.0925 }, "geometry": { "type": "Point", "coordinates": [ -114.0925, 46.92083 ] } },
{ "type": "Feature", "properties": { "sid": "KMUO", "name": "Mountain Home Air Force Base", "elev_ft": 2995, "state": "ID", "lat": 43.05, "lon": -115.86667 }, "geometry": { "type": "Point", "coordinates": [ -115.86667, 43.05 ] } },
{ "type": "Feature", "properties": { "sid": "KMWH", "name": "Grant County Airport", "elev_ft": 1168, "state": "WA", "lat": 47.19299, "lon": -119.31451 }, "geometry": { "type": "Point", "coordinates": [ -119.31451, 47.19299 ] } },
{ "type": "Feature", "properties": { "sid": "KMYF", "name": "San Diego, Montgomery Field", "elev_ft": 420, "state": "CA", "lat": 32.81444, "lon": -117.13639 }, "geometry": { "type": "Point", "coordinates": [ -117.13639, 32.81444 ] } },
{ "type": "Feature", "properties": { "sid": "KMYL", "name": "McCall Airport", "elev_ft": 5020, "state": "ID", "lat": 44.89425, "lon": -116.09978 }, "geometry": { "type": "Point", "coordinates": [ -116.09978, 44.89425 ] } },
{ "type": "Feature", "properties": { "sid": "KMYV", "name": "Marysville, Yuba County Airport", "elev_ft": 62, "state": "CA", "lat": 39.09778, "lon": -121.56972 }, "geometry": { "type": "Point", "coordinates": [ -121.56972, 39.09778 ] } },
{ "type": "Feature", "properties": { "sid": "KNFG", "name": "Oceanside, Camp Pendleton, Marine Corps Air Station", "elev_ft": 75, "state": "CA", "lat": 33.30472, "lon": -117.35389 }, "geometry": { "type": "Point", "coordinates": [ -117.35389, 33.30472 ] } },
{ "type": "Feature", "properties": { "sid": "KNFL", "name": "Fallon, Naval Air Station", "elev_ft": 3934, "state": "NV", "lat": 39.43222, "lon": -118.68556 }, "geometry": { "type": "Point", "coordinates": [ -118.68556, 39.43222 ] } },
{ "type": "Feature", "properties": { "sid": "KNID", "name": "China Lake, Naval Air Facility", "elev_ft": 2283, "state": "CA", "lat": 35.68639, "lon": -117.69 }, "geometry": { "type": "Point", "coordinates": [ -117.69, 35.68639 ] } },
{ "type": "Feature", "properties": { "sid": "KNJK", "name": "El Centro, Naval Air Facility", "elev_ft": -43, "state": "CA", "lat": 32.825, "lon": -115.66056 }, "geometry": { "type": "Point", "coordinates": [ -115.66056, 32.825 ] } },
{ "type": "Feature", "properties": { "sid": "KNKX", "name": "San Diego, Miramar MCAS/Mitscher Field Airport", "elev_ft": 479, "state": "CA", "lat": 32.86833, "lon": -117.1425 }, "geometry": { "type": "Point", "coordinates": [ -117.1425, 32.86833 ] } },
{ "type": "Feature", "properties": { "sid": "KNLC", "name": "Lemoore Naval Air Station - Reeves Field", "elev_ft": 223, "state": "CA", "lat": 36.30244, "lon": -119.93968 }, "geometry": { "type": "Point", "coordinates": [ -119.93968, 36.30244 ] } },
{ "type": "Feature", "properties": { "sid": "KNRS", "name": "Imperial Beach Naval Outlying Field - Ream Field", "elev_ft": 20, "state": "CA", "lat": 32.56302, "lon": -117.11091 }, "geometry": { "type": "Point", "coordinates": [ -117.11091, 32.56302 ] } },
{ "type": "Feature", "properties": { "sid": "KNSI", "name": "San Nicolas Island Naval Outlying Field", "elev_ft": 528, "state": "CA", "lat": 33.23379, "lon": -119.45588 }, "geometry": { "type": "Point", "coordinates": [ -119.45588, 33.23379 ] } },
{ "type": "Feature", "properties": { "sid": "KNTD", "name": "Point Mugu, Naval Air Warfare Center", "elev_ft": 10, "state": "CA", "lat": 34.12389, "lon": -119.12167 }, "geometry": { "type": "Point", "coordinates": [ -119.12167, 34.12389 ] } },
{ "type": "Feature", "properties": { "sid": "KNUC", "name": "San Clemente Island NALF", "elev_ft": 167, "state": "CA", "lat": 33.0218, "lon": -118.58266 }, "geometry": { "type": "Point", "coordinates": [ -118.58266, 33.0218 ] } },
{ "type": "Feature", "properties": { "sid": "KNUQ", "name": "Mountain View, Moffett Field", "elev_ft": 33, "state": "CA", "lat": 37.40583, "lon": -122.04806 }, "geometry": { "type": "Point", "coordinates": [ -122.04806, 37.40583 ] } },
{ "type": "Feature", "properties": { "sid": "KNUW", "name": "Whidbey Island Naval Air Station - Ault Field", "elev_ft": 43, "state": "WA", "lat": 48.35525, "lon": -122.66352 }, "geometry": { "type": "Point", "coordinates": [ -122.66352, 48.35525 ] } },
{ "type": "Feature", "properties": { "sid": "KNXP", "name": "Twentynine Palms SELF Airport", "elev_ft": 2001, "state": "CA", "lat": 34.29401, "lon": -116.14717 }, "geometry": { "type": "Point", "coordinates": [ -116.14717, 34.29401 ] } },
{ "type": "Feature", "properties": { "sid": "KNYL", "name": "Yuma, Marine Corps Air Station", "elev_ft": 207, "state": "AZ", "lat": 32.65944, "lon": -114.59306 }, "geometry": { "type": "Point", "coordinates": [ -114.59306, 32.65944 ] } },
{ "type": "Feature", "properties": { "sid": "KNZY", "name": "San Diego, North Island, Naval Air Station", "elev_ft": 23, "state": "CA", "lat": 32.69083, "lon": -117.20889 }, "geometry": { "type": "Point", "coordinates": [ -117.20889, 32.69083 ] } },
{ "type": "Feature", "properties": { "sid": "KOAK", "name": "San Francisco Bay Oakland International Airport", "elev_ft": 9, "state": "CA", "lat": 37.72126, "lon": -122.22115 }, "geometry": { "type": "Point", "coordinates": [ -122.22115, 37.72126 ] } },
{ "type": "Feature", "properties": { "sid": "KOAR", "name": "FORT ORD/FRITZSCHE", "elev_ft": 135, "state": "CA", "lat": 36.68, "lon": -121.77 }, "geometry": { "type": "Point", "coordinates": [ -121.77, 36.68 ] } },
{ "type": "Feature", "properties": { "sid": "KOKB", "name": "Oceanside, Oceanside Municipal Airport", "elev_ft": 30, "state": "CA", "lat": 33.21806, "lon": -117.35139 }, "geometry": { "type": "Point", "coordinates": [ -117.35139, 33.21806 ] } },
{ "type": "Feature", "properties": { "sid": "KOLF", "name": "Wolf Point, Clayton Airport", "elev_ft": 1985, "state": "MT", "lat": 48.09444, "lon": -105.57722 }, "geometry": { "type": "Point", "coordinates": [ -105.57722, 48.09444 ] } },
{ "type": "Feature", "properties": { "sid": "KOLM", "name": "Olympia, Olympia Airport", "elev_ft": 203, "state": "WA", "lat": 46.97333, "lon": -122.90333 }, "geometry": { "type": "Point", "coordinates": [ -122.90333, 46.97333 ] } },
{ "type": "Feature", "properties": { "sid": "KOLS", "name": "Nogales, Nogales International Airport", "elev_ft": 3930, "state": "AZ", "lat": 31.42083, "lon": -110.84583 }, "geometry": { "type": "Point", "coordinates": [ -110.84583, 31.42083 ] } },
{ "type": "Feature", "properties": { "sid": "KONO", "name": "Ontario Municipal Airport", "elev_ft": 2185, "state": "OR", "lat": 44.01424, "lon": -117.00808 }, "geometry": { "type": "Point", "coordinates": [ -117.00808, 44.01424 ] } },
{ "type": "Feature", "properties": { "sid": "KONP", "name": "Newport, Newport Municipal Airport", "elev_ft": 161, "state": "OR", "lat": 44.58028, "lon": -124.05806 }, "geometry": { "type": "Point", "coordinates": [ -124.05806, 44.58028 ] } },
{ "type": "Feature", "properties": { "sid": "KONT", "name": "Ontario International Airport", "elev_ft": 906, "state": "CA", "lat": 34.05316, "lon": -117.57685 }, "geometry": { "type": "Point", "coordinates": [ -117.57685, 34.05316 ] } },
{ "type": "Feature", "properties": { "sid": "KOTH", "name": "Southwest Oregon Regional Airport", "elev_ft": 10, "state": "OR", "lat": 43.41948, "lon": -124.2437 }, "geometry": { "type": "Point", "coordinates": [ -124.2437, 43.41948 ] } },
{ "type": "Feature", "properties": { "sid": "KOVE", "name": "Oroville Municipal Airport", "elev_ft": 180, "state": "CA", "lat": 39.49436, "lon": -121.62223 }, "geometry": { "type": "Point", "coordinates": [ -121.62223, 39.49436 ] } },
{ "type": "Feature", "properties": { "sid": "KOXR", "name": "Oxnard, Oxnard Airport", "elev_ft": 43, "state": "CA", "lat": 34.20056, "lon": -119.20306 }, "geometry": { "type": "Point", "coordinates": [ -119.20306, 34.20056 ] } },
{ "type": "Feature", "properties": { "sid": "KP68", "name": "Eureka Airport ASOS", "elev_ft": 5945, "state": "NV", "lat": 39.60139, "lon": -116.00556 }, "geometry": { "type": "Point", "coordinates": [ -116.00556, 39.60139 ] } },
{ "type": "Feature", "properties": { "sid": "KP69", "name": "Lowell", "elev_ft": 1466, "state": "ID", "lat": 46.14417, "lon": -115.59639 }, "geometry": { "type": "Point", "coordinates": [ -115.59639, 46.14417 ] } },
{ "type": "Feature", "properties": { "sid": "KPAE", "name": "Everett Snohomish County", "elev_ft": 518, "state": "WA", "lat": 47.92331, "lon": -122.28305 }, "geometry": { "type": "Point", "coordinates": [ -122.28305, 47.92331 ] } },
{ "type": "Feature", "properties": { "sid": "KPAO", "name": "Palo Alto Airport", "elev_ft": 7, "state": "CA", "lat": 37.46667, "lon": -122.11667 }, "geometry": { "type": "Point", "coordinates": [ -122.11667, 37.46667 ] } },
{ "type": "Feature", "properties": { "sid": "KPDT", "name": "Eastern Oregon Regional Airport at Pendleton", "elev_ft": 1483, "state": "OR", "lat": 45.69757, "lon": -118.83444 }, "geometry": { "type": "Point", "coordinates": [ -118.83444, 45.69757 ] } },
{ "type": "Feature", "properties": { "sid": "KPDX", "name": "Portland, Portland International Airport", "elev_ft": 20, "state": "OR", "lat": 45.59578, "lon": -122.60917 }, "geometry": { "type": "Point", "coordinates": [ -122.60917, 45.59578 ] } },
{ "type": "Feature", "properties": { "sid": "KPGA", "name": "Page, Page Municipal Airport", "elev_ft": 4311, "state": "AZ", "lat": 36.92056, "lon": -111.44806 }, "geometry": { "type": "Point", "coordinates": [ -111.44806, 36.92056 ] } },
{ "type": "Feature", "properties": { "sid": "KPHX", "name": "Phoenix, Phoenix Sky Harbor International Airport", "elev_ft": 1115, "state": "AZ", "lat": 33.427799, "lon": -112.003465 }, "geometry": { "type": "Point", "coordinates": [ -112.003465, 33.427799 ] } },
{ "type": "Feature", "properties": { "sid": "KPIH", "name": "Pocatello, Pocatello Regional Airport", "elev_ft": 4449, "state": "ID", "lat": 42.92028, "lon": -112.57111 }, "geometry": { "type": "Point", "coordinates": [ -112.57111, 42.92028 ] } },
{ "type": "Feature", "properties": { "sid": "KPMD", "name": "Palmdale, Palmdale Production Flight Plant", "elev_ft": 2543, "state": "CA", "lat": 34.62972, "lon": -118.08139 }, "geometry": { "type": "Point", "coordinates": [ -118.08139, 34.62972 ] } },
{ "type": "Feature", "properties": { "sid": "KPOC", "name": "Brackett Field Airport", "elev_ft": 997, "state": "CA", "lat": 34.09282, "lon": -117.77937 }, "geometry": { "type": "Point", "coordinates": [ -117.77937, 34.09282 ] } },
{ "type": "Feature", "properties": { "sid": "KPRB", "name": "Paso Robles Municipal Airport", "elev_ft": 810, "state": "CA", "lat": 35.66941, "lon": -120.62912 }, "geometry": { "type": "Point", "coordinates": [ -120.62912, 35.66941 ] } },
{ "type": "Feature", "properties": { "sid": "KPRC", "name": "Prescott, Love Field", "elev_ft": 5043, "state": "AZ", "lat": 34.64917, "lon": -112.42222 }, "geometry": { "type": "Point", "coordinates": [ -112.42222, 34.64917 ] } },
{ "type": "Feature", "properties": { "sid": "KPSC", "name": "Tri-Cities Airport", "elev_ft": 397, "state": "WA", "lat": 46.26955, "lon": -119.11813 }, "geometry": { "type": "Point", "coordinates": [ -119.11813, 46.26955 ] } },
{ "type": "Feature", "properties": { "sid": "KPSP", "name": "Palm Springs Regional Airport", "elev_ft": 407, "state": "CA", "lat": 33.82219, "lon": -116.50431 }, "geometry": { "type": "Point", "coordinates": [ -116.50431, 33.82219 ] } },
{ "type": "Feature", "properties": { "sid": "KPTV", "name": "Porterville, Porterville Municipal Airport", "elev_ft": 443, "state": "CA", "lat": 36.03333, "lon": -119.06667 }, "geometry": { "type": "Point", "coordinates": [ -119.06667, 36.03333 ] } },
{ "type": "Feature", "properties": { "sid": "KPUW", "name": "Pullman / Moscow Regional Airport", "elev_ft": 2542, "state": "WA", "lat": 46.74377, "lon": -117.11579 }, "geometry": { "type": "Point", "coordinates": [ -117.11579, 46.74377 ] } },
{ "type": "Feature", "properties": { "sid": "KPWT", "name": "Bremerton, Bremerton National Airport", "elev_ft": 440, "state": "WA", "lat": 47.5, "lon": -122.75 }, "geometry": { "type": "Point", "coordinates": [ -122.75, 47.5 ] } },
{ "type": "Feature", "properties": { "sid": "KRAL", "name": "Riverside Municipal Airport", "elev_ft": 819, "state": "CA", "lat": 33.95189, "lon": -117.44511 }, "geometry": { "type": "Point", "coordinates": [ -117.44511, 33.95189 ] } },
{ "type": "Feature", "properties": { "sid": "KRBL", "name": "Red Bluff, Red Bluff Municipal Airport", "elev_ft": 348, "state": "CA", "lat": 40.15056, "lon": -122.25222 }, "geometry": { "type": "Point", "coordinates": [ -122.25222, 40.15056 ] } },
{ "type": "Feature", "properties": { "sid": "KRBG", "name": "Roseburg Regional Airport", "elev_ft": 499, "state": "OR", "lat": 43.23368, "lon": -123.3577 }, "geometry": { "type": "Point", "coordinates": [ -123.3577, 43.23368 ] } },
{ "type": "Feature", "properties": { "sid": "KRDD", "name": "Redding Municipal Airport", "elev_ft": 499, "state": "CA", "lat": 40.51461, "lon": -122.2977 }, "geometry": { "type": "Point", "coordinates": [ -122.2977, 40.51461 ] } },
{ "type": "Feature", "properties": { "sid": "KRDM", "name": "Redmond Roberts Field", "elev_ft": 3048, "state": "OR", "lat": 44.25588, "lon": -121.14059 }, "geometry": { "type": "Point", "coordinates": [ -121.14059, 44.25588 ] } },
{ "type": "Feature", "properties": { "sid": "KREO", "name": "Rome State Airport", "elev_ft": 4053, "state": "OR", "lat": 42.57766, "lon": -117.88543 }, "geometry": { "type": "Point", "coordinates": [ -117.88543, 42.57766 ] } },
{ "type": "Feature", "properties": { "sid": "KRHV", "name": "San Jose / Reid / Hillv", "elev_ft": 135, "state": "CA", "lat": 37.33333, "lon": -121.81667 }, "geometry": { "type": "Point", "coordinates": [ -121.81667, 37.33333 ] } },
{ "type": "Feature", "properties": { "sid": "KRIV", "name": "March Air Reserve Base", "elev_ft": 1536, "state": "CA", "lat": 33.88194, "lon": -117.25902 }, "geometry": { "type": "Point", "coordinates": [ -117.25902, 33.88194 ] } },
{ "type": "Feature", "properties": { "sid": "KRNM", "name": "Ramona, Ramona Airport", "elev_ft": 1391, "state": "CA", "lat": 33.0375, "lon": -116.91583 }, "geometry": { "type": "Point", "coordinates": [ -116.91583, 33.0375 ] } },
{ "type": "Feature", "properties": { "sid": "KRNO", "name": "Reno, Reno Tahoe International Airport", "elev_ft": 4403, "state": "NV", "lat": 39.50776, "lon": -119.76819 }, "geometry": { "type": "Point", "coordinates": [ -119.76819, 39.50776 ] } },
{ "type": "Feature", "properties": { "sid": "KRNT", "name": "Renton Municipal Airport", "elev_ft": 23, "state": "WA", "lat": 47.49509, "lon": -122.21437 }, "geometry": { "type": "Point", "coordinates": [ -122.21437, 47.49509 ] } },
{ "type": "Feature", "properties": { "sid": "KRQE", "name": "Window Rock, Window Rock Airport", "elev_ft": 6742, "state": "AZ", "lat": 35.65, "lon": -109.06667 }, "geometry": { "type": "Point", "coordinates": [ -109.06667, 35.65 ] } },
{ "type": "Feature", "properties": { "sid": "KRXE", "name": "Rexburg, Rexburg-Madison County Airport", "elev_ft": 4859, "state": "ID", "lat": 43.83167, "lon": -111.80611 }, "geometry": { "type": "Point", "coordinates": [ -111.80611, 43.83167 ] } },
{ "type": "Feature", "properties": { "sid": "KGIC", "name": "Grangeville - Idaho County Airport", "elev_ft": 3287, "state": "ID", "lat": 45.94111, "lon": -116.13257 }, "geometry": { "type": "Point", "coordinates": [ -116.13257, 45.94111 ] } },
{ "type": "Feature", "properties": { "sid": "KSAC", "name": "Sacramento Executive Airport", "elev_ft": 16, "state": "CA", "lat": 38.50674, "lon": -121.49597 }, "geometry": { "type": "Point", "coordinates": [ -121.49597, 38.50674 ] } },
{ "type": "Feature", "properties": { "sid": "KSAD", "name": "Safford, Safford Municipal Airport", "elev_ft": 3176, "state": "AZ", "lat": 32.85722, "lon": -109.63556 }, "geometry": { "type": "Point", "coordinates": [ -109.63556, 32.85722 ] } },
{ "type": "Feature", "properties": { "sid": "KSAN", "name": "San Diego International Airport", "elev_ft": 13, "state": "CA", "lat": 32.73361, "lon": -117.18306 }, "geometry": { "type": "Point", "coordinates": [ -117.18306, 32.73361 ] } },
{ "type": "Feature", "properties": { "sid": "KSBA", "name": "Santa Barbara, Santa Barbara Municipal Airport", "elev_ft": 10, "state": "CA", "lat": 34.42611, "lon": -119.84361 }, "geometry": { "type": "Point", "coordinates": [ -119.84361, 34.42611 ] } },
{ "type": "Feature", "properties": { "sid": "KSBD", "name": "San Bernardino Intl. Airport", "elev_ft": 1086, "state": "CA", "lat": 34.09027, "lon": -117.24705 }, "geometry": { "type": "Point", "coordinates": [ -117.24705, 34.09027 ] } },
{ "type": "Feature", "properties": { "sid": "KSBP", "name": "San Luis Obispo, San Luis Obispo County-Mc Chesney Field", "elev_ft": 207, "state": "CA", "lat": 35.23611, "lon": -120.63611 }, "geometry": { "type": "Point", "coordinates": [ -120.63611, 35.23611 ] } },
{ "type": "Feature", "properties": { "sid": "KSCK", "name": "Stockton, Stockton Metropolitan Airport", "elev_ft": 30, "state": "CA", "lat": 37.88972, "lon": -121.22361 }, "geometry": { "type": "Point", "coordinates": [ -121.22361, 37.88972 ] } },
{ "type": "Feature", "properties": { "sid": "KSDB", "name": "Sandberg", "elev_ft": 4521, "state": "CA", "lat": 34.74361, "lon": -118.72444 }, "geometry": { "type": "Point", "coordinates": [ -118.72444, 34.74361 ] } },
{ "type": "Feature", "properties": { "sid": "KSDL", "name": "Scottsdale Airport", "elev_ft": 1430, "state": "AZ", "lat": 33.61235, "lon": -111.92316 }, "geometry": { "type": "Point", "coordinates": [ -111.92316, 33.61235 ] } },
{ "type": "Feature", "properties": { "sid": "KSDM", "name": "San Diego, Brown Field Municipal Airport", "elev_ft": 538, "state": "CA", "lat": 32.57528, "lon": -116.99306 }, "geometry": { "type": "Point", "coordinates": [ -116.99306, 32.57528 ] } },
{ "type": "Feature", "properties": { "sid": "KSDY", "name": "Sidney-Richland", "elev_ft": 1985, "state": "MT", "lat": 47.7, "lon": -104.2 }, "geometry": { "type": "Point", "coordinates": [ -104.2, 47.7 ] } },
{ "type": "Feature", "properties": { "sid": "KSEA", "name": "Seattle, Seattle-Tacoma International Airport", "elev_ft": 427, "state": "WA", "lat": 47.44472, "lon": -122.31361 }, "geometry": { "type": "Point", "coordinates": [ -122.31361, 47.44472 ] } },
{ "type": "Feature", "properties": { "sid": "KSEE", "name": "Gillespie Field Airport", "elev_ft": 364, "state": "CA", "lat": 32.82738, "lon": -116.97369 }, "geometry": { "type": "Point", "coordinates": [ -116.97369, 32.82738 ] } },
{ "type": "Feature", "properties": { "sid": "KSFF", "name": "Spokane, Felts Field", "elev_ft": 1952, "state": "WA", "lat": 47.68556, "lon": -117.32028 }, "geometry": { "type": "Point", "coordinates": [ -117.32028, 47.68556 ] } },
{ "type": "Feature", "properties": { "sid": "KSFO", "name": "San Francisco, San Francisco International Airport", "elev_ft": 10, "state": "CA", "lat": 37.61961, "lon": -122.36558 }, "geometry": { "type": "Point", "coordinates": [ -122.36558, 37.61961 ] } },
{ "type": "Feature", "properties": { "sid": "KSGU", "name": "St George Regional Airport", "elev_ft": 2872, "state": "UT", "lat": 37.0451, "lon": -113.50561 }, "geometry": { "type": "Point", "coordinates": [ -113.50561, 37.0451 ] } },
{ "type": "Feature", "properties": { "sid": "KSHN", "name": "Shelton, Shelton Sanderson Field", "elev_ft": 269, "state": "WA", "lat": 47.23806, "lon": -123.14083 }, "geometry": { "type": "Point", "coordinates": [ -123.14083, 47.23806 ] } },
{ "type": "Feature", "properties": { "sid": "KSIY", "name": "Montague Siskiyou County Airport", "elev_ft": 2644, "state": "CA", "lat": 41.77375, "lon": -122.46817 }, "geometry": { "type": "Point", "coordinates": [ -122.46817, 41.77375 ] } },
{ "type": "Feature", "properties": { "sid": "KSJC", "name": "San Jose, San Jose International Airport", "elev_ft": 59, "state": "CA", "lat": 37.35917, "lon": -121.92417 }, "geometry": { "type": "Point", "coordinates": [ -121.92417, 37.35917 ] } },
{ "type": "Feature", "properties": { "sid": "KSJN", "name": "St. Johns, St. Johns Industrial Airpark", "elev_ft": 5732, "state": "AZ", "lat": 34.51833, "lon": -109.37917 }, "geometry": { "type": "Point", "coordinates": [ -109.37917, 34.51833 ] } },
{ "type": "Feature", "properties": { "sid": "KSKA", "name": "Fairchild Air Force Base", "elev_ft": 2461, "state": "WA", "lat": 47.61667, "lon": -117.65 }, "geometry": { "type": "Point", "coordinates": [ -117.65, 47.61667 ] } },
{ "type": "Feature", "properties": { "sid": "KSLE", "name": "Salem - McNary Field", "elev_ft": 207, "state": "OR", "lat": 44.90493, "lon": -123.00096 }, "geometry": { "type": "Point", "coordinates": [ -123.00096, 44.90493 ] } },
{ "type": "Feature", "properties": { "sid": "KSLI", "name": "Los Alamitos Army Airfield", "elev_ft": 26, "state": "CA", "lat": 33.79628, "lon": -118.04179 }, "geometry": { "type": "Point", "coordinates": [ -118.04179, 33.79628 ] } },
{ "type": "Feature", "properties": { "sid": "KSMF", "name": "Sacramento International Airport", "elev_ft": 20, "state": "CA", "lat": 38.70071, "lon": -121.59479 }, "geometry": { "type": "Point", "coordinates": [ -121.59479, 38.70071 ] } },
{ "type": "Feature", "properties": { "sid": "KSMN", "name": "Salmon, Lemhi County Airport", "elev_ft": 4045, "state": "ID", "lat": 45.11667, "lon": -113.88333 }, "geometry": { "type": "Point", "coordinates": [ -113.88333, 45.11667 ] } },
{ "type": "Feature", "properties": { "sid": "KSMO", "name": "Santa Monica, Santa Monica Municipal Airport", "elev_ft": 174, "state": "CA", "lat": 34.01583, "lon": -118.45139 }, "geometry": { "type": "Point", "coordinates": [ -118.45139, 34.01583 ] } },
{ "type": "Feature", "properties": { "sid": "KSMP", "name": "Stampede Pass", "elev_ft": 3970, "state": "WA", "lat": 47.27648, "lon": -121.33817 }, "geometry": { "type": "Point", "coordinates": [ -121.33817, 47.27648 ] } },
{ "type": "Feature", "properties": { "sid": "KSMX", "name": "Santa Maria Public Airport/Capt G Allan Hancock Field", "elev_ft": 243, "state": "CA", "lat": 34.89408, "lon": -120.45212 }, "geometry": { "type": "Point", "coordinates": [ -120.45212, 34.89408 ] } },
{ "type": "Feature", "properties": { "sid": "KSNA", "name": "John Wayne-Orange County Airport", "elev_ft": 39, "state": "CA", "lat": 33.6798, "lon": -117.8674 }, "geometry": { "type": "Point", "coordinates": [ -117.8674, 33.6798 ] } },
{ "type": "Feature", "properties": { "sid": "KSNS", "name": "Salinas, Salinas Municipal Airport", "elev_ft": 82, "state": "CA", "lat": 36.66361, "lon": -121.60806 }, "geometry": { "type": "Point", "coordinates": [ -121.60806, 36.66361 ] } },
{ "type": "Feature", "properties": { "sid": "KSNT", "name": "Stanley, Stanley Ranger Station", "elev_ft": 6496, "state": "ID", "lat": 44.20861, "lon": -114.93444 }, "geometry": { "type": "Point", "coordinates": [ -114.93444, 44.20861 ] } },
{ "type": "Feature", "properties": { "sid": "KSOW", "name": "Show Low, Show Low Regional Airport", "elev_ft": 6414, "state": "AZ", "lat": 34.26528, "lon": -110.00556 }, "geometry": { "type": "Point", "coordinates": [ -110.00556, 34.26528 ] } },
{ "type": "Feature", "properties": { "sid": "KSQL", "name": "San Carlos Airport", "elev_ft": 3, "state": "CA", "lat": 37.51667, "lon": -122.25 }, "geometry": { "type": "Point", "coordinates": [ -122.25, 37.51667 ] } },
{ "type": "Feature", "properties": { "sid": "KSTS", "name": "Santa Rosa, Santa Rosa Sonoma County Airport", "elev_ft": 125, "state": "CA", "lat": 38.5, "lon": -122.81667 }, "geometry": { "type": "Point", "coordinates": [ -122.81667, 38.5 ] } },
{ "type": "Feature", "properties": { "sid": "KSUN", "name": "Hailey, Friedman Memorial Airport", "elev_ft": 5318, "state": "ID", "lat": 43.5, "lon": -114.3 }, "geometry": { "type": "Point", "coordinates": [ -114.3, 43.5 ] } },
{ "type": "Feature", "properties": { "sid": "KSUU", "name": "Fairfield / Travis Air Force Base", "elev_ft": 62, "state": "CA", "lat": 38.26667, "lon": -121.95 }, "geometry": { "type": "Point", "coordinates": [ -121.95, 38.26667 ] } },
{ "type": "Feature", "properties": { "sid": "KSVE", "name": "Susanville Municipal Airport", "elev_ft": 4149, "state": "CA", "lat": 40.37569, "lon": -120.57269 }, "geometry": { "type": "Point", "coordinates": [ -120.57269, 40.37569 ] } },
{ "type": "Feature", "properties": { "sid": "KSXT", "name": "Sexton Summit", "elev_ft": 3842, "state": "OR", "lat": 42.6, "lon": -123.3656 }, "geometry": { "type": "Point", "coordinates": [ -123.3656, 42.6 ] } },
{ "type": "Feature", "properties": { "sid": "KTCM", "name": "Tacoma / McChord Air Force Base", "elev_ft": 322, "state": "WA", "lat": 47.15, "lon": -122.48333 }, "geometry": { "type": "Point", "coordinates": [ -122.48333, 47.15 ] } },
{ "type": "Feature", "properties": { "sid": "KTIW", "name": "Tacoma, Tacoma Narrows Airport", "elev_ft": 315, "state": "WA", "lat": 47.2675, "lon": -122.57611 }, "geometry": { "type": "Point", "coordinates": [ -122.57611, 47.2675 ] } },
{ "type": "Feature", "properties": { "sid": "KTOA", "name": "Torrance, Zamperini Field Airport", "elev_ft": 102, "state": "CA", "lat": 33.8, "lon": -118.33333 }, "geometry": { "type": "Point", "coordinates": [ -118.33333, 33.8 ] } },
{ "type": "Feature", "properties": { "sid": "KTPH", "name": "Tonopah, Tonopah Airport", "elev_ft": 5426, "state": "NV", "lat": 38.06028, "lon": -117.08722 }, "geometry": { "type": "Point", "coordinates": [ -117.08722, 38.06028 ] } },
{ "type": "Feature", "properties": { "sid": "KTRK", "name": "Truckee-Tahoe", "elev_ft": 5899, "state": "CA", "lat": 39.31667, "lon": -120.13333 }, "geometry": { "type": "Point", "coordinates": [ -120.13333, 39.31667 ] } },
{ "type": "Feature", "properties": { "sid": "KTRM", "name": "Palm Springs, Jacqueline Cochran Regional Airport", "elev_ft": -125, "state": "CA", "lat": 33.62667, "lon": -116.15944 }, "geometry": { "type": "Point", "coordinates": [ -116.15944, 33.62667 ] } },
{ "type": "Feature", "properties": { "sid": "KTTD", "name": "Portland, Portland-Troutdale Airport", "elev_ft": 36, "state": "OR", "lat": 45.55111, "lon": -122.40889 }, "geometry": { "type": "Point", "coordinates": [ -122.40889, 45.55111 ] } },
{ "type": "Feature", "properties": { "sid": "KTUS", "name": "Tucson, Tucson International Airport", "elev_ft": 2546, "state": "AZ", "lat": 32.13153, "lon": -110.95635 }, "geometry": { "type": "Point", "coordinates": [ -110.95635, 32.13153 ] } },
{ "type": "Feature", "properties": { "sid": "KTVL", "name": "South Lake Tahoe, Lake Tahoe Airport", "elev_ft": 6257, "state": "CA", "lat": 38.89836, "lon": -119.99615 }, "geometry": { "type": "Point", "coordinates": [ -119.99615, 38.89836 ] } },
{ "type": "Feature", "properties": { "sid": "KTWF", "name": "Joslin Field - Magic Valley Regional Airport", "elev_ft": 4163, "state": "ID", "lat": 42.4785, "lon": -114.47739 }, "geometry": { "type": "Point", "coordinates": [ -114.47739, 42.4785 ] } },
{ "type": "Feature", "properties": { "sid": "KUAO", "name": "Aurora State Airport", "elev_ft": 194, "state": "OR", "lat": 45.24658, "lon": -122.77095 }, "geometry": { "type": "Point", "coordinates": [ -122.77095, 45.24658 ] } },
{ "type": "Feature", "properties": { "sid": "KUIL", "name": "Quillayute, Quillayute State Airport", "elev_ft": 194, "state": "WA", "lat": 47.9375, "lon": -124.555 }, "geometry": { "type": "Point", "coordinates": [ -124.555, 47.9375 ] } },
{ "type": "Feature", "properties": { "sid": "KUKI", "name": "Ukiah Municipal Airport", "elev_ft": 597, "state": "CA", "lat": 39.12783, "lon": -123.20011 }, "geometry": { "type": "Point", "coordinates": [ -123.20011, 39.12783 ] } },
{ "type": "Feature", "properties": { "sid": "KVBG", "name": "Vandenberg Space Force Base", "elev_ft": 367, "state": "CA", "lat": 34.72944, "lon": -120.57667 }, "geometry": { "type": "Point", "coordinates": [ -120.57667, 34.72944 ] } },
{ "type": "Feature", "properties": { "sid": "KVCB", "name": "Vacaville Nut Tree Airport", "elev_ft": 105, "state": "CA", "lat": 38.37755, "lon": -121.95853 }, "geometry": { "type": "Point", "coordinates": [ -121.95853, 38.37755 ] } },
{ "type": "Feature", "properties": { "sid": "KVGT", "name": "Las Vegas, North Las Vegas Airport", "elev_ft": 2188, "state": "NV", "lat": 36.21205, "lon": -115.19395 }, "geometry": { "type": "Point", "coordinates": [ -115.19395, 36.21205 ] } },
{ "type": "Feature", "properties": { "sid": "KVIS", "name": "Visalia, Visalia Municipal Airport", "elev_ft": 295, "state": "CA", "lat": 36.31667, "lon": -119.4 }, "geometry": { "type": "Point", "coordinates": [ -119.4, 36.31667 ] } },
{ "type": "Feature", "properties": { "sid": "KVNY", "name": "Van Nuys, Van Nuys Airport", "elev_ft": 797, "state": "CA", "lat": 34.2125, "lon": -118.49083 }, "geometry": { "type": "Point", "coordinates": [ -118.49083, 34.2125 ] } },
{ "type": "Feature", "properties": { "sid": "KVUO", "name": "Pearson Airfield", "elev_ft": 20, "state": "WA", "lat": 45.62103, "lon": -122.65419 }, "geometry": { "type": "Point", "coordinates": [ -122.65419, 45.62103 ] } },
{ "type": "Feature", "properties": { "sid": "KWJF", "name": "General Wm J Fox Airfield", "elev_ft": 2333, "state": "CA", "lat": 34.74123, "lon": -118.21251 }, "geometry": { "type": "Point", "coordinates": [ -118.21251, 34.74123 ] } },
{ "type": "Feature", "properties": { "sid": "KWMC", "name": "Winnemucca, Winnemucca Municipal Airport", "elev_ft": 4301, "state": "NV", "lat": 40.90194, "lon": -117.80722 }, "geometry": { "type": "Point", "coordinates": [ -117.80722, 40.90194 ] } },
{ "type": "Feature", "properties": { "sid": "KYKM", "name": "Yakima Air Terminal - McAllister Field", "elev_ft": 1043, "state": "WA", "lat": 46.56402, "lon": -120.53484 }, "geometry": { "type": "Point", "coordinates": [ -120.53484, 46.56402 ] } },
{ "type": "Feature", "properties": { "sid": "KPWD", "name": "Sher-Wood Airport", "elev_ft": 2264, "state": "MT", "lat": 48.789, "lon": -104.52297 }, "geometry": { "type": "Point", "coordinates": [ -104.52297, 48.789 ] } },
{ "type": "Feature", "properties": { "sid": "KOMK", "name": "Omak Airport", "elev_ft": 1293, "state": "WA", "lat": 48.46116, "lon": -119.52086 }, "geometry": { "type": "Point", "coordinates": [ -119.52086, 48.46116 ] } },
{ "type": "Feature", "properties": { "sid": "KMMV", "name": "McMinnville, McMinnville Municipal Airport", "elev_ft": 157, "state": "OR", "lat": 45.19611, "lon": -123.13222 }, "geometry": { "type": "Point", "coordinates": [ -123.13222, 45.19611 ] } },
{ "type": "Feature", "properties": { "sid": "KTMK", "name": "Tillamook, Tillamook Airport", "elev_ft": 36, "state": "OR", "lat": 45.41806, "lon": -123.81444 }, "geometry": { "type": "Point", "coordinates": [ -123.81444, 45.41806 ] } },
{ "type": "Feature", "properties": { "sid": "KSPB", "name": "Scappoose Industrial Airpark", "elev_ft": 49, "state": "OR", "lat": 45.7691, "lon": -122.86365 }, "geometry": { "type": "Point", "coordinates": [ -122.86365, 45.7691 ] } },
{ "type": "Feature", "properties": { "sid": "KS21", "name": "Sunriver", "elev_ft": 4154, "state": "OR", "lat": 43.88333, "lon": -121.45 }, "geometry": { "type": "Point", "coordinates": [ -121.45, 43.88333 ] } },
{ "type": "Feature", "properties": { "sid": "KHCR", "name": "Heber Valley Airport", "elev_ft": 5597, "state": "UT", "lat": 40.47742, "lon": -111.43295 }, "geometry": { "type": "Point", "coordinates": [ -111.43295, 40.47742 ] } },
{ "type": "Feature", "properties": { "sid": "KAZC", "name": "Colorado City, Colorado City Municipal Airport", "elev_ft": 4875, "state": "AZ", "lat": 36.95, "lon": -113.0 }, "geometry": { "type": "Point", "coordinates": [ -113.0, 36.95 ] } },
{ "type": "Feature", "properties": { "sid": "KU52", "name": "BEAVER MUNICIPAL AIRPORT", "elev_ft": 5860, "state": "UT", "lat": 38.23071, "lon": -112.67535 }, "geometry": { "type": "Point", "coordinates": [ -112.67535, 38.23071 ] } },
{ "type": "Feature", "properties": { "sid": "KRIF", "name": "Richfield Municipal Airport", "elev_ft": 5318, "state": "UT", "lat": 38.73411, "lon": -112.10158 }, "geometry": { "type": "Point", "coordinates": [ -112.10158, 38.73411 ] } },
{ "type": "Feature", "properties": { "sid": "KKNB", "name": "KANAB MUNICIPAL AIRPORT", "elev_ft": 4865, "state": "UT", "lat": 37.01, "lon": -112.53 }, "geometry": { "type": "Point", "coordinates": [ -112.53, 37.01 ] } },
{ "type": "Feature", "properties": { "sid": "KU55", "name": "PANGUITCH MUNICIPAL AIRPORT", "elev_ft": 6759, "state": "UT", "lat": 37.85, "lon": -112.39 }, "geometry": { "type": "Point", "coordinates": [ -112.39, 37.85 ] } },
{ "type": "Feature", "properties": { "sid": "K74V", "name": "ROOSEVELT", "elev_ft": 5171, "state": "UT", "lat": 40.28, "lon": -110.05 }, "geometry": { "type": "Point", "coordinates": [ -110.05, 40.28 ] } },
{ "type": "Feature", "properties": { "sid": "KU69", "name": "DUCHESNE", "elev_ft": 5826, "state": "UT", "lat": 40.1919, "lon": -110.38099 }, "geometry": { "type": "Point", "coordinates": [ -110.38099, 40.1919 ] } },
{ "type": "Feature", "properties": { "sid": "KSZT", "name": "Sandpoint, Sandpoint Airport", "elev_ft": 2126, "state": "ID", "lat": 48.29944, "lon": -116.56 }, "geometry": { "type": "Point", "coordinates": [ -116.56, 48.29944 ] } },
{ "type": "Feature", "properties": { "sid": "KWVI", "name": "Watsonville, Watsonville Municipal Airport", "elev_ft": 161, "state": "CA", "lat": 36.93944, "lon": -121.78889 }, "geometry": { "type": "Point", "coordinates": [ -121.78889, 36.93944 ] } },
{ "type": "Feature", "properties": { "sid": "K4S1", "name": "Gold Beach Municipal Airport", "elev_ft": 16, "state": "OR", "lat": 42.41536, "lon": -124.42492 }, "geometry": { "type": "Point", "coordinates": [ -124.42492, 42.41536 ] } },
{ "type": "Feature", "properties": { "sid": "KAUN", "name": "Auburn Municipal Airport", "elev_ft": 1486, "state": "CA", "lat": 38.95535, "lon": -121.08636 }, "geometry": { "type": "Point", "coordinates": [ -121.08636, 38.95535 ] } },
{ "type": "Feature", "properties": { "sid": "KAVX", "name": "Avalon Catalina Airport", "elev_ft": 1578, "state": "CA", "lat": 33.40421, "lon": -118.41456 }, "geometry": { "type": "Point", "coordinates": [ -118.41456, 33.40421 ] } },
{ "type": "Feature", "properties": { "sid": "KBVS", "name": "Burlington/Mount Vernon, Skagit Regional Airport", "elev_ft": 144, "state": "WA", "lat": 48.47083, "lon": -122.42083 }, "geometry": { "type": "Point", "coordinates": [ -122.42083, 48.47083 ] } },
{ "type": "Feature", "properties": { "sid": "KCHD", "name": "Chandler, Chandler Municipal Airport", "elev_ft": 1243, "state": "AZ", "lat": 33.26917, "lon": -111.81111 }, "geometry": { "type": "Point", "coordinates": [ -111.81111, 33.26917 ] } },
{ "type": "Feature", "properties": { "sid": "K63S", "name": "Colville Municipal Airport", "elev_ft": 1888, "state": "WA", "lat": 48.54417, "lon": -117.88353 }, "geometry": { "type": "Point", "coordinates": [ -117.88353, 48.54417 ] } },
{ "type": "Feature", "properties": { "sid": "KHND", "name": "Las Vegas - Henderson Executive Airport", "elev_ft": 2427, "state": "NV", "lat": 35.97665, "lon": -115.13221 }, "geometry": { "type": "Point", "coordinates": [ -115.13221, 35.97665 ] } },
{ "type": "Feature", "properties": { "sid": "KHTH", "name": "Hawthorne Industrial Airport", "elev_ft": 4230, "state": "NV", "lat": 38.54482, "lon": -118.63137 }, "geometry": { "type": "Point", "coordinates": [ -118.63137, 38.54482 ] } },
{ "type": "Feature", "properties": { "sid": "KINS", "name": "Nellis AFB - Indian Springs Auxiliary Airfield", "elev_ft": 3130, "state": "NV", "lat": 36.58573, "lon": -115.69008 }, "geometry": { "type": "Point", "coordinates": [ -115.69008, 36.58573 ] } },
{ "type": "Feature", "properties": { "sid": "KIZA", "name": "Santa Ynez, Santa Ynez Airport", "elev_ft": 673, "state": "CA", "lat": 34.60694, "lon": -120.07556 }, "geometry": { "type": "Point", "coordinates": [ -120.07556, 34.60694 ] } },
{ "type": "Feature", "properties": { "sid": "KNOW", "name": "Port Angeles Coast Guard Air Station", "elev_ft": 16, "state": "WA", "lat": 48.13333, "lon": -123.4 }, "geometry": { "type": "Point", "coordinates": [ -123.4, 48.13333 ] } },
{ "type": "Feature", "properties": { "sid": "KNRA", "name": "Coupeville, Outlying Landing Field", "elev_ft": 197, "state": "WA", "lat": 48.19056, "lon": -122.63056 }, "geometry": { "type": "Point", "coordinates": [ -122.63056, 48.19056 ] } },
{ "type": "Feature", "properties": { "sid": "KORS", "name": "Eastsound, Orcas Island Airport", "elev_ft": 30, "state": "WA", "lat": 48.70806, "lon": -122.91028 }, "geometry": { "type": "Point", "coordinates": [ -122.91028, 48.70806 ] } },
{ "type": "Feature", "properties": { "sid": "K10U", "name": "Owyhee Airport", "elev_ft": 5377, "state": "NV", "lat": 41.95363, "lon": -116.18207 }, "geometry": { "type": "Point", "coordinates": [ -116.18207, 41.95363 ] } },
{ "type": "Feature", "properties": { "sid": "KU19", "name": "Granite Peak", "elev_ft": 4298, "state": "UT", "lat": 40.16667, "lon": -113.35001 }, "geometry": { "type": "Point", "coordinates": [ -113.35001, 40.16667 ] } },
{ "type": "Feature", "properties": { "sid": "KSEZ", "name": "Sedona Airport", "elev_ft": 4826, "state": "AZ", "lat": 34.85, "lon": -111.78333 }, "geometry": { "type": "Point", "coordinates": [ -111.78333, 34.85 ] } },
{ "type": "Feature", "properties": { "sid": "KU16", "name": "Eagle Range", "elev_ft": 4232, "state": "UT", "lat": 41.06064, "lon": -113.07148 }, "geometry": { "type": "Point", "coordinates": [ -113.07148, 41.06064 ] } },
{ "type": "Feature", "properties": { "sid": "KVCV", "name": "Victorville, Southern California Logistics Airport", "elev_ft": 2884, "state": "CA", "lat": 34.59722, "lon": -117.38278 }, "geometry": { "type": "Point", "coordinates": [ -117.38278, 34.59722 ] } },
{ "type": "Feature", "properties": { "sid": "KWHP", "name": "Los Angeles, Whiteman Airport", "elev_ft": 1004, "state": "CA", "lat": 34.25, "lon": -118.4 }, "geometry": { "type": "Point", "coordinates": [ -118.4, 34.25 ] } },
{ "type": "Feature", "properties": { "sid": "K9L2", "name": "Edwards Air Force Auxiliary North Base", "elev_ft": 2299, "state": "CA", "lat": 34.99083, "lon": -117.86317 }, "geometry": { "type": "Point", "coordinates": [ -117.86317, 34.99083 ] } },
{ "type": "Feature", "properties": { "sid": "KBOK", "name": "Brookings, Brookings Airport", "elev_ft": 459, "state": "OR", "lat": 42.07444, "lon": -124.29 }, "geometry": { "type": "Point", "coordinates": [ -124.29, 42.07444 ] } },
{ "type": "Feature", "properties": { "sid": "KDIJ", "name": "Driggs, Driggs-Reed Memorial Airport", "elev_ft": 6227, "state": "ID", "lat": 43.74167, "lon": -111.09778 }, "geometry": { "type": "Point", "coordinates": [ -111.09778, 43.74167 ] } },
{ "type": "Feature", "properties": { "sid": "KGPI", "name": "Kalispell, Glacier Park International Airport", "elev_ft": 2972, "state": "MT", "lat": 48.30417, "lon": -114.26361 }, "geometry": { "type": "Point", "coordinates": [ -114.26361, 48.30417 ] } },
{ "type": "Feature", "properties": { "sid": "KDTA", "name": "Delta, Delta Municipal Airport", "elev_ft": 4755, "state": "UT", "lat": 39.38333, "lon": -112.50967 }, "geometry": { "type": "Point", "coordinates": [ -112.50967, 39.38333 ] } },
{ "type": "Feature", "properties": { "sid": "K9S9", "name": "Lexington Airport", "elev_ft": 1635, "state": "OR", "lat": 45.45414, "lon": -119.69027 }, "geometry": { "type": "Point", "coordinates": [ -119.69027, 45.45414 ] } },
{ "type": "Feature", "properties": { "sid": "KBDN", "name": "Bend Airport AWOS", "elev_ft": 3455, "state": "OR", "lat": 44.0948, "lon": -121.2006 }, "geometry": { "type": "Point", "coordinates": [ -121.2006, 44.0948 ] } },
{ "type": "Feature", "properties": { "sid": "K4S2", "name": "Ken Jernstedt Airfield", "elev_ft": 600, "state": "OR", "lat": 45.67457, "lon": -121.53493 }, "geometry": { "type": "Point", "coordinates": [ -121.53493, 45.67457 ] } },
{ "type": "Feature", "properties": { "sid": "KJAQ", "name": "Westover Field - Amador County Airport", "elev_ft": 1694, "state": "CA", "lat": 38.3768, "lon": -120.79391 }, "geometry": { "type": "Point", "coordinates": [ -120.79391, 38.3768 ] } },
{ "type": "Feature", "properties": { "sid": "KDWA", "name": "Yolo County Airport", "elev_ft": 100, "state": "CA", "lat": 38.57939, "lon": -121.85694 }, "geometry": { "type": "Point", "coordinates": [ -121.85694, 38.57939 ] } },
{ "type": "Feature", "properties": { "sid": "KAJO", "name": "Corona Airport", "elev_ft": 534, "state": "CA", "lat": 33.8977, "lon": -117.6024 }, "geometry": { "type": "Point", "coordinates": [ -117.6024, 33.8977 ] } },
{ "type": "Feature", "properties": { "sid": "KCLS", "name": "Chehalis-Centralia Airport", "elev_ft": 177, "state": "WA", "lat": 46.677, "lon": -122.9827 }, "geometry": { "type": "Point", "coordinates": [ -122.9827, 46.677 ] } },
{ "type": "Feature", "properties": { "sid": "K1YT", "name": "Vagabond Army Airfield", "elev_ft": 1437, "state": "WA", "lat": 46.6667, "lon": -120.45 }, "geometry": { "type": "Point", "coordinates": [ -120.45, 46.6667 ] } },
{ "type": "Feature", "properties": { "sid": "KL35", "name": "Big Bear City Airport", "elev_ft": 6752, "state": "CA", "lat": 34.2638, "lon": -116.856 }, "geometry": { "type": "Point", "coordinates": [ -116.856, 34.2638 ] } },
{ "type": "Feature", "properties": { "sid": "KPLU", "name": "Pierce County-Thun Field", "elev_ft": 538, "state": "WA", "lat": 47.104, "lon": -122.287 }, "geometry": { "type": "Point", "coordinates": [ -122.287, 47.104 ] } },
{ "type": "Feature", "properties": { "sid": "KRVF", "name": "Ruby Valley Field Airport", "elev_ft": 4789, "state": "MT", "lat": 45.53542, "lon": -112.30228 }, "geometry": { "type": "Point", "coordinates": [ -112.30228, 45.53542 ] } },
{ "type": "Feature", "properties": { "sid": "KEKS", "name": "Ennis - Big Sky Airport", "elev_ft": 5383, "state": "MT", "lat": 45.27436, "lon": -111.64886 }, "geometry": { "type": "Point", "coordinates": [ -111.64886, 45.27436 ] } },
{ "type": "Feature", "properties": { "sid": "K3S8", "name": "Grants Pass Airport", "elev_ft": 1126, "state": "OR", "lat": 42.51011, "lon": -123.38798 }, "geometry": { "type": "Point", "coordinates": [ -123.38798, 42.51011 ] } },
{ "type": "Feature", "properties": { "sid": "KM75", "name": "Malta Airport", "elev_ft": 2254, "state": "MT", "lat": 48.36694, "lon": -107.91934 }, "geometry": { "type": "Point", "coordinates": [ -107.91934, 48.36694 ] } },
{ "type": "Feature", "properties": { "sid": "KRLD", "name": "Richland Airport", "elev_ft": 387, "state": "WA", "lat": 46.30859, "lon": -119.3058 }, "geometry": { "type": "Point", "coordinates": [ -119.3058, 46.30859 ] } },
{ "type": "Feature", "properties": { "sid": "KDVO", "name": "Novato / Gnoss Field", "elev_ft": 3, "state": "CA", "lat": 38.14178, "lon": -122.55463 }, "geometry": { "type": "Point", "coordinates": [ -122.55463, 38.14178 ] } },
{ "type": "Feature", "properties": { "sid": "K1U7", "name": "Bear Lake County Airport", "elev_ft": 5928, "state": "ID", "lat": 42.2497, "lon": -111.3416 }, "geometry": { "type": "Point", "coordinates": [ -111.3416, 42.2497 ] } },
{ "type": "Feature", "properties": { "sid": "KHVE", "name": "Hanksville", "elev_ft": 4444, "state": "UT", "lat": 38.418037, "lon": -110.704038 }, "geometry": { "type": "Point", "coordinates": [ -110.704038, 38.418037 ] } },
{ "type": "Feature", "properties": { "sid": "KFOM", "name": "Fillmore", "elev_ft": 4985, "state": "UT", "lat": 38.95814, "lon": -112.36314 }, "geometry": { "type": "Point", "coordinates": [ -112.36314, 38.95814 ] } },
{ "type": "Feature", "properties": { "sid": "KCVH", "name": "Hollister, CA", "elev_ft": 229, "state": "CA", "lat": 36.8933, "lon": -121.4103 }, "geometry": { "type": "Point", "coordinates": [ -121.4103, 36.8933 ] } },
{ "type": "Feature", "properties": { "sid": "KHAF", "name": "Half Moon Bay Airport", "elev_ft": 65, "state": "CA", "lat": 37.5136, "lon": -122.4996 }, "geometry": { "type": "Point", "coordinates": [ -122.4996, 37.5136 ] } },
{ "type": "Feature", "properties": { "sid": "KTSP", "name": "Tehachapi Municipal Airport", "elev_ft": 4001, "state": "CA", "lat": 35.135, "lon": -118.4392 }, "geometry": { "type": "Point", "coordinates": [ -118.4392, 35.135 ] } },
{ "type": "Feature", "properties": { "sid": "KEDU", "name": "University Airport", "elev_ft": 68, "state": "CA", "lat": 38.5315, "lon": -121.7865 }, "geometry": { "type": "Point", "coordinates": [ -121.7865, 38.5315 ] } },
{ "type": "Feature", "properties": { "sid": "KPVF", "name": "Placerville Airport", "elev_ft": 2585, "state": "CA", "lat": 38.7242, "lon": -120.7533 }, "geometry": { "type": "Point", "coordinates": [ -120.7533, 38.7242 ] } },
{ "type": "Feature", "properties": { "sid": "KLHM", "name": "Lincoln Regional Karl Harder Field", "elev_ft": 121, "state": "CA", "lat": 38.9092, "lon": -121.3513 }, "geometry": { "type": "Point", "coordinates": [ -121.3513, 38.9092 ] } },
{ "type": "Feature", "properties": { "sid": "KJSY", "name": "Joseph State Airport AWOS", "elev_ft": 4120, "state": "OR", "lat": 45.355889, "lon": -117.254083 }, "geometry": { "type": "Point", "coordinates": [ -117.254083, 45.355889 ] } },
{ "type": "Feature", "properties": { "sid": "KPAN", "name": "Payson Airport", "elev_ft": 5157, "state": "AZ", "lat": 34.256836, "lon": -111.339256 }, "geometry": { "type": "Point", "coordinates": [ -111.339256, 34.256836 ] } },
{ "type": "Feature", "properties": { "sid": "KCMR", "name": "Williams/Clark Memorial Airport", "elev_ft": 6680, "state": "AZ", "lat": 35.305472, "lon": -112.194389 }, "geometry": { "type": "Point", "coordinates": [ -112.194389, 35.305472 ] } },
{ "type": "Feature", "properties": { "sid": "K6S2", "name": "Florence Municipal Airport", "elev_ft": 52, "state": "OR", "lat": 43.9828, "lon": -124.1114 }, "geometry": { "type": "Point", "coordinates": [ -124.1114, 43.9828 ] } },
{ "type": "Feature", "properties": { "sid": "KCXP", "name": "Carson City Airport", "elev_ft": 4694, "state": "NV", "lat": 39.19056, "lon": -119.73191 }, "geometry": { "type": "Point", "coordinates": [ -119.73191, 39.19056 ] } },
{ "type": "Feature", "properties": { "sid": "KO22", "name": "COLUMBIA", "elev_ft": 2119, "state": "CA", "lat": 38.03, "lon": -120.42 }, "geometry": { "type": "Point", "coordinates": [ -120.42, 38.03 ] } },
{ "type": "Feature", "properties": { "sid": "KMWS", "name": "MOUNT WILSON", "elev_ft": 5705, "state": "CA", "lat": 34.22, "lon": -118.07 }, "geometry": { "type": "Point", "coordinates": [ -118.07, 34.22 ] } },
{ "type": "Feature", "properties": { "sid": "KO54", "name": "Weaverville", "elev_ft": 2244, "state": "CA", "lat": 40.746, "lon": -122.9223 }, "geometry": { "type": "Point", "coordinates": [ -122.9223, 40.746 ] } },
{ "type": "Feature", "properties": { "sid": "KBVU", "name": "Boulder City Municipal Airport", "elev_ft": 2200, "state": "NV", "lat": 35.9475, "lon": -114.8611 }, "geometry": { "type": "Point", "coordinates": [ -114.8611, 35.9475 ] } },
{ "type": "Feature", "properties": { "sid": "KBXK", "name": "Buckeye Municipal Airport", "elev_ft": 1020, "state": "AZ", "lat": 33.4204, "lon": -112.6862 }, "geometry": { "type": "Point", "coordinates": [ -112.6862, 33.4204 ] } },
{ "type": "Feature", "properties": { "sid": "KALK", "name": "Pioneer Airfield", "elev_ft": 4735, "state": "AZ", "lat": 31.60564, "lon": -110.4281 }, "geometry": { "type": "Point", "coordinates": [ -110.4281, 31.60564 ] } },
{ "type": "Feature", "properties": { "sid": "KRYN", "name": "Tucson Ryan Field Airport", "elev_ft": 2417, "state": "AZ", "lat": 32.1422, "lon": -111.1746 }, "geometry": { "type": "Point", "coordinates": [ -111.1746, 32.1422 ] } },
{ "type": "Feature", "properties": { "sid": "K65S", "name": "Boundary County Airport", "elev_ft": 2333, "state": "ID", "lat": 48.726, "lon": -116.2952 }, "geometry": { "type": "Point", "coordinates": [ -116.2952, 48.726 ] } },
{ "type": "Feature", "properties": { "sid": "KMAN", "name": "Nampa Municipal Airport", "elev_ft": 2536, "state": "ID", "lat": 43.5813, "lon": -116.5231 }, "geometry": { "type": "Point", "coordinates": [ -116.5231, 43.5813 ] } },
{ "type": "Feature", "properties": { "sid": "K6S0", "name": "Big Timber Airport", "elev_ft": 4494, "state": "MT", "lat": 45.80647, "lon": -109.97826 }, "geometry": { "type": "Point", "coordinates": [ -109.97826, 45.80647 ] } },
{ "type": "Feature", "properties": { "sid": "KRTS", "name": "Reno/Stead", "elev_ft": 5050, "state": "NV", "lat": 39.6682, "lon": -119.8764 }, "geometry": { "type": "Point", "coordinates": [ -119.8764, 39.6682 ] } },
{ "type": "Feature", "properties": { "sid": "KPO1", "name": "Poplar Municipal Airport", "elev_ft": 2037, "state": "MT", "lat": 48.13442, "lon": -105.16214 }, "geometry": { "type": "Point", "coordinates": [ -105.16214, 48.13442 ] } },
{ "type": "Feature", "properties": { "sid": "KHRF", "name": "Ravalli County Airport", "elev_ft": 3644, "state": "MT", "lat": 46.25463, "lon": -114.1246 }, "geometry": { "type": "Point", "coordinates": [ -114.1246, 46.25463 ] } },
{ "type": "Feature", "properties": { "sid": "KO69", "name": "Petaluma Municipal Airport", "elev_ft": 89, "state": "CA", "lat": 38.2578, "lon": -122.6053 }, "geometry": { "type": "Point", "coordinates": [ -122.6053, 38.2578 ] } },
{ "type": "Feature", "properties": { "sid": "KE16", "name": "South County Airport of Santa Clara County", "elev_ft": 281, "state": "CA", "lat": 37.081586, "lon": -121.596806 }, "geometry": { "type": "Point", "coordinates": [ -121.596806, 37.081586 ] } },
{ "type": "Feature", "properties": { "sid": "KU14", "name": "Nephi Municipal Airport", "elev_ft": 5022, "state": "UT", "lat": 39.7386, "lon": -111.8722 }, "geometry": { "type": "Point", "coordinates": [ -111.8722, 39.7386 ] } },
{ "type": "Feature", "properties": { "sid": "KFOT", "name": "Fortuna Rohnerville Airport", "elev_ft": 377, "state": "CA", "lat": 40.55296, "lon": -124.13338 }, "geometry": { "type": "Point", "coordinates": [ -124.13338, 40.55296 ] } },
{ "type": "Feature", "properties": { "sid": "KGOO", "name": "Nevada County Air Park", "elev_ft": 3154, "state": "CA", "lat": 39.224028, "lon": -121.003083 }, "geometry": { "type": "Point", "coordinates": [ -121.003083, 39.224028 ] } },
{ "type": "Feature", "properties": { "sid": "K05U", "name": "Eureka Airport AWOS", "elev_ft": 5942, "state": "NV", "lat": 39.60209, "lon": -116.00625 }, "geometry": { "type": "Point", "coordinates": [ -116.00625, 39.60209 ] } },
{ "type": "Feature", "properties": { "sid": "KO86", "name": "Trinity Center", "elev_ft": 2385, "state": "CA", "lat": 40.98452, "lon": -122.69342 }, "geometry": { "type": "Point", "coordinates": [ -122.69342, 40.98452 ] } },
{ "type": "Feature", "properties": { "sid": "KBAN", "name": "MCMWTC BRIDGEPORT", "elev_ft": 6748, "state": "CA", "lat": 38.3557, "lon": -119.5188 }, "geometry": { "type": "Point", "coordinates": [ -119.5188, 38.3557 ] } },
{ "type": "Feature", "properties": { "sid": "KS33", "name": "Madras Municipal Airport", "elev_ft": 2427, "state": "OR", "lat": 44.6653, "lon": -121.1564 }, "geometry": { "type": "Point", "coordinates": [ -121.1564, 44.6653 ] } },
{ "type": "Feature", "properties": { "sid": "KP08", "name": "Coolidge Municipal Airport", "elev_ft": 1574, "state": "AZ", "lat": 32.9359, "lon": -111.4265 }, "geometry": { "type": "Point", "coordinates": [ -111.4265, 32.9359 ] } },
{ "type": "Feature", "properties": { "sid": "KF70", "name": "Murrieta/Temecula French Valley", "elev_ft": 1350, "state": "CA", "lat": 33.5742, "lon": -117.1285 }, "geometry": { "type": "Point", "coordinates": [ -117.1285, 33.5742 ] } },
{ "type": "Feature", "properties": { "sid": "KHII", "name": "Havasu City Airport", "elev_ft": 807, "state": "AZ", "lat": 34.56595, "lon": -114.35224 }, "geometry": { "type": "Point", "coordinates": [ -114.35224, 34.56595 ] } },
{ "type": "Feature", "properties": { "sid": "KL18", "name": "Fallbrook Community Airpark", "elev_ft": 708, "state": "CA", "lat": 33.3542, "lon": -117.2509 }, "geometry": { "type": "Point", "coordinates": [ -117.2509, 33.3542 ] } },
{ "type": "Feature", "properties": { "sid": "KP52", "name": "Cottonwood Airport", "elev_ft": 3560, "state": "AZ", "lat": 34.73006, "lon": -112.03514 }, "geometry": { "type": "Point", "coordinates": [ -112.03514, 34.73006 ] } },
{ "type": "Feature", "properties": { "sid": "KMEV", "name": "Minden-Tahoe Airport", "elev_ft": 4722, "state": "NV", "lat": 38.9963, "lon": -119.75 }, "geometry": { "type": "Point", "coordinates": [ -119.75, 38.9963 ] } },
{ "type": "Feature", "properties": { "sid": "K1S5", "name": "Sunnyside Municipal Airport", "elev_ft": 768, "state": "WA", "lat": 46.3271, "lon": -119.9704 }, "geometry": { "type": "Point", "coordinates": [ -119.9704, 46.3271 ] } },
{ "type": "Feature", "properties": { "sid": "KS39", "name": "Prineville Airport", "elev_ft": 3250, "state": "OR", "lat": 44.287, "lon": -120.9038 }, "geometry": { "type": "Point", "coordinates": [ -120.9038, 44.287 ] } },
{ "type": "Feature", "properties": { "sid": "KMVH", "name": "N BAR Ranch Airport", "elev_ft": 4446, "state": "MT", "lat": 46.8381, "lon": -108.9368 }, "geometry": { "type": "Point", "coordinates": [ -108.9368, 46.8381 ] } },
{ "type": "Feature", "properties": { "sid": "KAVQ", "name": "Tucson Marana Regional Airport", "elev_ft": 2031, "state": "AZ", "lat": 32.4096, "lon": -111.2184 }, "geometry": { "type": "Point", "coordinates": [ -111.2184, 32.4096 ] } },
{ "type": "Feature", "properties": { "sid": "KGXA", "name": "Gray Butte Field Airport", "elev_ft": 3028, "state": "CA", "lat": 34.5666, "lon": -117.6704 }, "geometry": { "type": "Point", "coordinates": [ -117.6704, 34.5666 ] } },
{ "type": "Feature", "properties": { "sid": "K0S9", "name": "Port Townsend Jefferson County International Airport", "elev_ft": 105, "state": "WA", "lat": 48.05517, "lon": -122.81159 }, "geometry": { "type": "Point", "coordinates": [ -122.81159, 48.05517 ] } },
{ "type": "Feature", "properties": { "sid": "K41U", "name": "Manti-Ephraim Airport", "elev_ft": 5500, "state": "UT", "lat": 39.33133, "lon": -111.61273 }, "geometry": { "type": "Point", "coordinates": [ -111.61273, 39.33133 ] } },
{ "type": "Feature", "properties": { "sid": "KJTC", "name": "Springerville Municipal Airport", "elev_ft": 7054, "state": "AZ", "lat": 34.1294, "lon": -109.3109 }, "geometry": { "type": "Point", "coordinates": [ -109.3109, 34.1294 ] } },
{ "type": "Feature", "properties": { "sid": "KCPU", "name": "San Andreas Calaveras County Airport", "elev_ft": 1325, "state": "CA", "lat": 38.1461, "lon": -120.6482 }, "geometry": { "type": "Point", "coordinates": [ -120.6482, 38.1461 ] } },
{ "type": "Feature", "properties": { "sid": "KA39", "name": "Ak-Chin Regional Airport", "elev_ft": 1306, "state": "AZ", "lat": 32.99, "lon": -111.91833 }, "geometry": { "type": "Point", "coordinates": [ -111.91833, 32.99 ] } },
{ "type": "Feature", "properties": { "sid": "KNOZ", "name": "Yuma Auxiliary Airfield", "elev_ft": 346, "state": "AZ", "lat": 32.5, "lon": -114.45 }, "geometry": { "type": "Point", "coordinates": [ -114.45, 32.5 ] } },
{ "type": "Feature", "properties": { "sid": "KC83", "name": "Byron", "elev_ft": 79, "state": "CA", "lat": 37.8276, "lon": -121.6244 }, "geometry": { "type": "Point", "coordinates": [ -121.6244, 37.8276 ] } },
{ "type": "Feature", "properties": { "sid": "KO32", "name": "Reedley Municipal Airport", "elev_ft": 386, "state": "CA", "lat": 36.671, "lon": -119.45103 }, "geometry": { "type": "Point", "coordinates": [ -119.45103, 36.671 ] } },
{ "type": "Feature", "properties": { "sid": "KL08", "name": "Borrego Valley Airport", "elev_ft": 522, "state": "CA", "lat": 33.25903, "lon": -116.32097 }, "geometry": { "type": "Point", "coordinates": [ -116.32097, 33.25903 ] } },
{ "type": "Feature", "properties": { "sid": "KCCB", "name": "Cable Airport", "elev_ft": 1444, "state": "CA", "lat": 34.11161, "lon": -117.68739 }, "geometry": { "type": "Point", "coordinates": [ -117.68739, 34.11161 ] } },
{ "type": "Feature", "properties": { "sid": "KDLO", "name": "Delano Municipal Airport", "elev_ft": 316, "state": "CA", "lat": 35.74556, "lon": -119.2365 }, "geometry": { "type": "Point", "coordinates": [ -119.2365, 35.74556 ] } },
{ "type": "Feature", "properties": { "sid": "KLGF", "name": "Laguna Army Airfield", "elev_ft": 433, "state": "AZ", "lat": 32.86459, "lon": -114.39298 }, "geometry": { "type": "Point", "coordinates": [ -114.39298, 32.86459 ] } },
{ "type": "Feature", "properties": { "sid": "KTCY", "name": "Tracy Municipal Airport", "elev_ft": 193, "state": "CA", "lat": 37.6889, "lon": -121.44158 }, "geometry": { "type": "Point", "coordinates": [ -121.44158, 37.6889 ] } },
{ "type": "Feature", "properties": { "sid": "KS52", "name": "Methow Valley", "elev_ft": 1706, "state": "WA", "lat": 48.42495, "lon": -120.14589 }, "geometry": { "type": "Point", "coordinates": [ -120.14589, 48.42495 ] } },
{ "type": "Feature", "properties": { "sid": "K1GM", "name": "Golf", "elev_ft": 4301, "state": "MT", "lat": 47.33, "lon": -112.1 }, "geometry": { "type": "Point", "coordinates": [ -112.1, 47.33 ] } },
{ "type": "Feature", "properties": { "sid": "KTYL", "name": "Taylor Airport", "elev_ft": 5823, "state": "AZ", "lat": 34.45272, "lon": -110.11503 }, "geometry": { "type": "Point", "coordinates": [ -110.11503, 34.45272 ] } },
{ "type": "Feature", "properties": { "sid": "KTMT", "name": "Austin Airport", "elev_ft": 5735, "state": "NV", "lat": 39.46794, "lon": -117.19745 }, "geometry": { "type": "Point", "coordinates": [ -117.19745, 39.46794 ] } },
{ "type": "Feature", "properties": { "sid": "K1DM", "name": "Delta", "elev_ft": 3587, "state": "MT", "lat": 47.38, "lon": -109.82 }, "geometry": { "type": "Point", "coordinates": [ -109.82, 47.38 ] } },
{ "type": "Feature", "properties": { "sid": "K1KM", "name": "Kilo - Harlowton", "elev_ft": 4452, "state": "MT", "lat": 46.5, "lon": -109.8 }, "geometry": { "type": "Point", "coordinates": [ -109.8, 46.5 ] } },
{ "type": "Feature", "properties": { "sid": "K1AM", "name": "Raynesford", "elev_ft": 4177, "state": "MT", "lat": 47.3, "lon": -110.8 }, "geometry": { "type": "Point", "coordinates": [ -110.8, 47.3 ] } },
{ "type": "Feature", "properties": { "sid": "K1BM", "name": "Geyser", "elev_ft": 3957, "state": "MT", "lat": 47.3, "lon": -110.4 }, "geometry": { "type": "Point", "coordinates": [ -110.4, 47.3 ] } },
{ "type": "Feature", "properties": { "sid": "K1CM", "name": "Windham", "elev_ft": 4446, "state": "MT", "lat": 47.1, "lon": -110.2 }, "geometry": { "type": "Point", "coordinates": [ -110.2, 47.1 ] } },
{ "type": "Feature", "properties": { "sid": "K1FM", "name": "Foxtrot", "elev_ft": 4373, "state": "MT", "lat": 47.6, "lon": -112.3 }, "geometry": { "type": "Point", "coordinates": [ -112.3, 47.6 ] } },
{ "type": "Feature", "properties": { "sid": "K1IM", "name": "India", "elev_ft": 3573, "state": "MT", "lat": 47.3, "lon": -111.5 }, "geometry": { "type": "Point", "coordinates": [ -111.5, 47.3 ] } },
{ "type": "Feature", "properties": { "sid": "K1MM", "name": "Moore", "elev_ft": 4190, "state": "MT", "lat": 47.0, "lon": -109.6 }, "geometry": { "type": "Point", "coordinates": [ -109.6, 47.0 ] } },
{ "type": "Feature", "properties": { "sid": "K1NM", "name": "November", "elev_ft": 3822, "state": "MT", "lat": 47.1, "lon": -109.0 }, "geometry": { "type": "Point", "coordinates": [ -109.0, 47.1 ] } },
{ "type": "Feature", "properties": { "sid": "K1OM", "name": "Roy", "elev_ft": 3451, "state": "MT", "lat": 47.3, "lon": -108.9 }, "geometry": { "type": "Point", "coordinates": [ -108.9, 47.3 ] } },
{ "type": "Feature", "properties": { "sid": "K77S", "name": "Hobby Field Airport", "elev_ft": 541, "state": "OR", "lat": 43.93075, "lon": -123.00667 }, "geometry": { "type": "Point", "coordinates": [ -123.00667, 43.93075 ] } },
{ "type": "Feature", "properties": { "sid": "KHMT", "name": "Hemet-Ryan Airport", "elev_ft": 1515, "state": "CA", "lat": 33.73403, "lon": -117.02231 }, "geometry": { "type": "Point", "coordinates": [ -117.02231, 33.73403 ] } },
{ "type": "Feature", "properties": { "sid": "K00U", "name": "Big Horn County Airport", "elev_ft": 3025, "state": "MT", "lat": 45.74439, "lon": -107.66044 }, "geometry": { "type": "Point", "coordinates": [ -107.66044, 45.74439 ] } },
{ "type": "Feature", "properties": { "sid": "K1EM", "name": "Echo", "elev_ft": 3661, "state": "MT", "lat": 47.4535, "lon": -109.4163 }, "geometry": { "type": "Point", "coordinates": [ -109.4163, 47.4535 ] } },
{ "type": "Feature", "properties": { "sid": "K1HM", "name": "Hotel", "elev_ft": 3868, "state": "MT", "lat": 47.6975, "lon": -111.9429 }, "geometry": { "type": "Point", "coordinates": [ -111.9429, 47.6975 ] } },
{ "type": "Feature", "properties": { "sid": "K1JM", "name": "Juliett", "elev_ft": 3779, "state": "MT", "lat": 47.7515, "lon": -111.5467 }, "geometry": { "type": "Point", "coordinates": [ -111.5467, 47.7515 ] } },
{ "type": "Feature", "properties": { "sid": "KGNG", "name": "Gooding Municipal Airport", "elev_ft": 3732, "state": "ID", "lat": 42.91716, "lon": -114.76516 }, "geometry": { "type": "Point", "coordinates": [ -114.76516, 42.91716 ] } },
{ "type": "Feature", "properties": { "sid": "KSPK", "name": "Spanish Fork Municipal Airport", "elev_ft": 4530, "state": "UT", "lat": 40.145, "lon": -111.6677 }, "geometry": { "type": "Point", "coordinates": [ -111.6677, 40.145 ] } },
{ "type": "Feature", "properties": { "sid": "KMZJ", "name": "Pinal Airpark", "elev_ft": 1893, "state": "AZ", "lat": 32.50983, "lon": -111.32533 }, "geometry": { "type": "Point", "coordinates": [ -111.32533, 32.50983 ] } },
{ "type": "Feature", "properties": { "sid": "KO05", "name": "Rogers Field Airport", "elev_ft": 4534, "state": "CA", "lat": 40.28236, "lon": -121.24117 }, "geometry": { "type": "Point", "coordinates": [ -121.24117, 40.28236 ] } },
{ "type": "Feature", "properties": { "sid": "KP33", "name": "Cochise County Airport", "elev_ft": 4180, "state": "AZ", "lat": 32.24541, "lon": -109.89463 }, "geometry": { "type": "Point", "coordinates": [ -109.89463, 32.24541 ] } },
{ "type": "Feature", "properties": { "sid": "KE95", "name": "Benson Municipal Airport", "elev_ft": 3832, "state": "AZ", "lat": 31.99944, "lon": -110.35797 }, "geometry": { "type": "Point", "coordinates": [ -110.35797, 31.99944 ] } },
{ "type": "Feature", "properties": { "sid": "KU64", "name": "Monticello Airport", "elev_ft": 6970, "state": "UT", "lat": 37.93243, "lon": -109.34122 }, "geometry": { "type": "Point", "coordinates": [ -109.34122, 37.93243 ] } },
{ "type": "Feature", "properties": { "sid": "KS12", "name": "Albany Municipal Airport", "elev_ft": 227, "state": "OR", "lat": 44.63782, "lon": -123.05945 }, "geometry": { "type": "Point", "coordinates": [ -123.05945, 44.63782 ] } },
{ "type": "Feature", "properties": { "sid": "K40U", "name": "MANILA", "elev_ft": 6175, "state": "UT", "lat": 40.9833, "lon": -109.6833 }, "geometry": { "type": "Point", "coordinates": [ -109.6833, 40.9833 ] } },
{ "type": "Feature", "properties": { "sid": "KE77", "name": "San Manuel Airport", "elev_ft": 3274, "state": "AZ", "lat": 32.63644, "lon": -110.64728 }, "geometry": { "type": "Point", "coordinates": [ -110.64728, 32.63644 ] } },
{ "type": "Feature", "properties": { "sid": "KSBX", "name": "Shelby Airport", "elev_ft": 3443, "state": "MT", "lat": 48.54069, "lon": -111.87125 }, "geometry": { "type": "Point", "coordinates": [ -111.87125, 48.54069 ] } },
{ "type": "Feature", "properties": { "sid": "KP03", "name": "Cochise College Airport", "elev_ft": 4146, "state": "AZ", "lat": 31.37131, "lon": -109.68995 }, "geometry": { "type": "Point", "coordinates": [ -109.68995, 31.37131 ] } },
{ "type": "Feature", "properties": { "sid": "K3W7", "name": "Grand Coulee Dam Airport", "elev_ft": 1593, "state": "WA", "lat": 47.92205, "lon": -119.083 }, "geometry": { "type": "Point", "coordinates": [ -119.083, 47.92205 ] } },
{ "type": "Feature", "properties": { "sid": "KO26", "name": "Lone Pine/Death Valley Airport", "elev_ft": 3710, "state": "CA", "lat": 36.58869, "lon": -118.04939 }, "geometry": { "type": "Point", "coordinates": [ -118.04939, 36.58869 ] } },
{ "type": "Feature", "properties": { "sid": "KTQS", "name": "Vandenberg SFB - South", "elev_ft": 112, "state": "CA", "lat": 34.633, "lon": -120.617 }, "geometry": { "type": "Point", "coordinates": [ -120.617, 34.633 ] } }
]
}
